{
"type": "FeatureCollection",
"name": "Estaciones_Sevici",
"crs": { "type": "name", "properties": { "name": "urn:ogc:def:crs:OGC:1.3:CRS84" } },
"features": [
{ "type": "Feature", "properties": { "FID": 1, "id_estacio": 1.0, "Direccion": "Glorieta Olimpica", "Aproximaci": "Concejal Alberto Jiménez-Becerril", "Lat_Y": 37.412983, "Lon_X": -5.988933, "CreationDate": "2014\/10\/04 21:21:32", "Creator": "Ayto.Sevilla", "EditDate": "2014\/10\/04 21:21:32", "Editor": "Ayto.Sevilla" }, "geometry": { "type": "Point", "coordinates": [ -5.988933251999981, 37.412983042000064 ] } },
{ "type": "Feature", "properties": { "FID": 2, "id_estacio": 2.0, "Direccion": "Gran Plaza", "Aproximaci": "Calle Marquez de Pickman", "Lat_Y": 37.381664, "Lon_X": -5.965183, "CreationDate": "2014\/10\/04 21:21:32", "Creator": "Ayto.Sevilla", "EditDate": "2014\/10\/04 21:21:32", "Editor": "Ayto.Sevilla" }, "geometry": { "type": "Point", "coordinates": [ -5.965182693999964, 37.381664061000038 ] } },
{ "type": "Feature", "properties": { "FID": 3, "id_estacio": 3.0, "Direccion": "Puerta de la Barqueta", "Aproximaci": "Puente de la Barqueta", "Lat_Y": 37.40564, "Lon_X": -5.998514, "CreationDate": "2014\/10\/04 21:21:32", "Creator": "Ayto.Sevilla", "EditDate": "2014\/10\/04 21:21:32", "Editor": "Ayto.Sevilla" }, "geometry": { "type": "Point", "coordinates": [ -5.998513783999954, 37.405639939000025 ] } },
{ "type": "Feature", "properties": { "FID": 4, "id_estacio": 4.0, "Direccion": "Calle Leonardo Da Vinci", "Aproximaci": "Calle Thomas Alba Edison", "Lat_Y": 37.410126, "Lon_X": -6.005659, "CreationDate": "2014\/10\/04 21:21:32", "Creator": "Ayto.Sevilla", "EditDate": "2014\/10\/04 21:21:32", "Editor": "Ayto.Sevilla" }, "geometry": { "type": "Point", "coordinates": [ -6.005658983999979, 37.410126089000073 ] } },
{ "type": "Feature", "properties": { "FID": 5, "id_estacio": 131.0, "Direccion": "Calle Tabladilla", "Aproximaci": "Calle Cardenal Ilundaín", "Lat_Y": 37.364746, "Lon_X": -5.981396, "CreationDate": "2014\/10\/04 21:21:32", "Creator": "Ayto.Sevilla", "EditDate": "2014\/10\/04 21:21:32", "Editor": "Ayto.Sevilla" }, "geometry": { "type": "Point", "coordinates": [ -5.981396386999961, 37.364746299000046 ] } },
{ "type": "Feature", "properties": { "FID": 6, "id_estacio": 132.0, "Direccion": "Calle Paez de Ribera", "Aproximaci": "Paseo de la Palmera", "Lat_Y": 37.36367, "Lon_X": -5.984777, "CreationDate": "2014\/10\/04 21:21:32", "Creator": "Ayto.Sevilla", "EditDate": "2014\/10\/04 21:21:32", "Editor": "Ayto.Sevilla" }, "geometry": { "type": "Point", "coordinates": [ -5.984776746999955, 37.363670338000077 ] } },
{ "type": "Feature", "properties": { "FID": 7, "id_estacio": 5.0, "Direccion": "Camino de los Descubrimientos", "Aproximaci": "Calle Thomás Alba Edison", "Lat_Y": 37.411022, "Lon_X": -6.001936, "CreationDate": "2014\/10\/04 21:21:32", "Creator": "Ayto.Sevilla", "EditDate": "2014\/10\/04 21:21:32", "Editor": "Ayto.Sevilla" }, "geometry": { "type": "Point", "coordinates": [ -6.001936365999939, 37.411022288000026 ] } },
{ "type": "Feature", "properties": { "FID": 8, "id_estacio": 133.0, "Direccion": "Avenida Santa Fe", "Aproximaci": "Calle Virgen de la Oliva", "Lat_Y": 37.374001, "Lon_X": -6.004259, "CreationDate": "2014\/10\/04 21:21:32", "Creator": "Ayto.Sevilla", "EditDate": "2014\/10\/04 21:21:32", "Editor": "Ayto.Sevilla" }, "geometry": { "type": "Point", "coordinates": [ -6.004259408999928, 37.374000926000065 ] } },
{ "type": "Feature", "properties": { "FID": 9, "id_estacio": 6.0, "Direccion": "Camino de los Descubrimientos", "Aproximaci": "Calle Isaac Newton", "Lat_Y": 37.406677, "Lon_X": -6.002848, "CreationDate": "2014\/10\/04 21:21:32", "Creator": "Ayto.Sevilla", "EditDate": "2014\/10\/04 21:21:32", "Editor": "Ayto.Sevilla" }, "geometry": { "type": "Point", "coordinates": [ -6.00284815599997, 37.406676765000043 ] } },
{ "type": "Feature", "properties": { "FID": 10, "id_estacio": 134.0, "Direccion": "Calle Virgen de Luján", "Aproximaci": "Calle Asunción", "Lat_Y": 37.374783, "Lon_X": -5.998519, "CreationDate": "2014\/10\/04 21:21:32", "Creator": "Ayto.Sevilla", "EditDate": "2014\/10\/04 21:21:32", "Editor": "Ayto.Sevilla" }, "geometry": { "type": "Point", "coordinates": [ -5.998519173999966, 37.374783337000054 ] } },
{ "type": "Feature", "properties": { "FID": 11, "id_estacio": 7.0, "Direccion": "Calle Américo Vespucio", "Aproximaci": "Calle de Jacques Cousteau", "Lat_Y": 37.407516, "Lon_X": -6.007413, "CreationDate": "2014\/10\/04 21:21:32", "Creator": "Ayto.Sevilla", "EditDate": "2014\/10\/04 21:21:32", "Editor": "Ayto.Sevilla" }, "geometry": { "type": "Point", "coordinates": [ -6.007413393999968, 37.407515920000037 ] } },
{ "type": "Feature", "properties": { "FID": 12, "id_estacio": 135.0, "Direccion": "Calle Virgen de Luján", "Aproximaci": "Glorieta las Cigarreras", "Lat_Y": 37.374657, "Lon_X": -5.994916, "CreationDate": "2014\/10\/04 21:21:32", "Creator": "Ayto.Sevilla", "EditDate": "2014\/10\/04 21:21:32", "Editor": "Ayto.Sevilla" }, "geometry": { "type": "Point", "coordinates": [ -5.994916031999935, 37.374656981000044 ] } },
{ "type": "Feature", "properties": { "FID": 13, "id_estacio": 136.0, "Direccion": "Calle Asunción", "Aproximaci": "Calle Virgen de la Antigua", "Lat_Y": 37.373226, "Lon_X": -5.99763, "CreationDate": "2014\/10\/04 21:21:32", "Creator": "Ayto.Sevilla", "EditDate": "2014\/10\/04 21:21:32", "Editor": "Ayto.Sevilla" }, "geometry": { "type": "Point", "coordinates": [ -5.997629841999981, 37.373225646000037 ] } },
{ "type": "Feature", "properties": { "FID": 14, "id_estacio": 8.0, "Direccion": "Calle Leonardo Da Vinci", "Aproximaci": "Calle Gregor Mendel", "Lat_Y": 37.401035, "Lon_X": -6.009403, "CreationDate": "2014\/10\/04 21:21:32", "Creator": "Ayto.Sevilla", "EditDate": "2014\/10\/04 21:21:32", "Editor": "Ayto.Sevilla" }, "geometry": { "type": "Point", "coordinates": [ -6.009403161999956, 37.401035059000037 ] } },
{ "type": "Feature", "properties": { "FID": 15, "id_estacio": 137.0, "Direccion": "Avenida de la Borbolla", "Aproximaci": "Calle Porvenir", "Lat_Y": 37.373745, "Lon_X": -5.985478, "CreationDate": "2014\/10\/04 21:21:32", "Creator": "Ayto.Sevilla", "EditDate": "2014\/10\/04 21:21:32", "Editor": "Ayto.Sevilla" }, "geometry": { "type": "Point", "coordinates": [ -5.985478330999968, 37.373745356000029 ] } },
{ "type": "Feature", "properties": { "FID": 16, "id_estacio": 138.0, "Direccion": "Calle Ramón Carande", "Aproximaci": "Calle San Salvador", "Lat_Y": 37.375852, "Lon_X": -5.978978, "CreationDate": "2014\/10\/04 21:21:32", "Creator": "Ayto.Sevilla", "EditDate": "2014\/10\/04 21:21:32", "Editor": "Ayto.Sevilla" }, "geometry": { "type": "Point", "coordinates": [ -5.978978121999944, 37.375852714000075 ] } },
{ "type": "Feature", "properties": { "FID": 17, "id_estacio": 9.0, "Direccion": "Camino de los Descubrimientos", "Aproximaci": "Calle Albert Einstein", "Lat_Y": 37.402927, "Lon_X": -6.004066, "CreationDate": "2014\/10\/04 21:21:32", "Creator": "Ayto.Sevilla", "EditDate": "2014\/10\/04 21:21:32", "Editor": "Ayto.Sevilla" }, "geometry": { "type": "Point", "coordinates": [ -6.004066270999942, 37.402926854000043 ] } },
{ "type": "Feature", "properties": { "FID": 18, "id_estacio": 139.0, "Direccion": "Avenida Diego Martinez Barrio", "Aproximaci": "Avenida General García de la Herranz", "Lat_Y": 37.37516, "Lon_X": -5.975825, "CreationDate": "2014\/10\/04 21:21:32", "Creator": "Ayto.Sevilla", "EditDate": "2014\/10\/04 21:21:32", "Editor": "Ayto.Sevilla" }, "geometry": { "type": "Point", "coordinates": [ -5.975825034999957, 37.375160262000065 ] } },
{ "type": "Feature", "properties": { "FID": 19, "id_estacio": 10.0, "Direccion": "Calle José Diaz", "Aproximaci": "Avenida Concejal Alberto Jiménez-Becerril", "Lat_Y": 37.409096, "Lon_X": -5.990961, "CreationDate": "2014\/10\/04 21:21:32", "Creator": "Ayto.Sevilla", "EditDate": "2014\/10\/04 21:21:32", "Editor": "Ayto.Sevilla" }, "geometry": { "type": "Point", "coordinates": [ -5.990960749999942, 37.409095732000026 ] } },
{ "type": "Feature", "properties": { "FID": 20, "id_estacio": 140.0, "Direccion": "Calle Felipe II", "Aproximaci": "Avenida Diego Martínez Barrio", "Lat_Y": 37.372375, "Lon_X": -5.977351, "CreationDate": "2014\/10\/04 21:21:32", "Creator": "Ayto.Sevilla", "EditDate": "2014\/10\/04 21:21:32", "Editor": "Ayto.Sevilla" }, "geometry": { "type": "Point", "coordinates": [ -5.977351272999954, 37.372374685000068 ] } },
{ "type": "Feature", "properties": { "FID": 21, "id_estacio": 11.0, "Direccion": "Calle Avicena", "Aproximaci": "Calle Avenzoar", "Lat_Y": 37.405846, "Lon_X": -5.993214, "CreationDate": "2014\/10\/04 21:21:32", "Creator": "Ayto.Sevilla", "EditDate": "2014\/10\/04 21:21:32", "Editor": "Ayto.Sevilla" }, "geometry": { "type": "Point", "coordinates": [ -5.993213723999929, 37.405846163000035 ] } },
{ "type": "Feature", "properties": { "FID": 22, "id_estacio": 141.0, "Direccion": "Calle Felipe II", "Aproximaci": "Calle Ramón Carande", "Lat_Y": 37.371716, "Lon_X": -5.9819, "CreationDate": "2014\/10\/04 21:21:32", "Creator": "Ayto.Sevilla", "EditDate": "2014\/10\/04 21:21:32", "Editor": "Ayto.Sevilla" }, "geometry": { "type": "Point", "coordinates": [ -5.98190034199996, 37.371715754000036 ] } },
{ "type": "Feature", "properties": { "FID": 23, "id_estacio": 12.0, "Direccion": "Plaza Duquesa de Alba", "Aproximaci": "Barqueta", "Lat_Y": 37.403854, "Lon_X": -5.99493, "CreationDate": "2014\/10\/04 21:21:32", "Creator": "Ayto.Sevilla", "EditDate": "2014\/10\/04 21:21:32", "Editor": "Ayto.Sevilla" }, "geometry": { "type": "Point", "coordinates": [ -5.994930404999934, 37.403853824000066 ] } },
{ "type": "Feature", "properties": { "FID": 24, "id_estacio": 142.0, "Direccion": "Calle Ramon de Carranza", "Aproximaci": "Calle Asunción", "Lat_Y": 37.371639, "Lon_X": -5.997197, "CreationDate": "2014\/10\/04 21:21:32", "Creator": "Ayto.Sevilla", "EditDate": "2014\/10\/04 21:21:32", "Editor": "Ayto.Sevilla" }, "geometry": { "type": "Point", "coordinates": [ -5.997196853999981, 37.371638652000058 ] } },
{ "type": "Feature", "properties": { "FID": 25, "id_estacio": 13.0, "Direccion": "Calle Feria", "Aproximaci": "Calle Resolana", "Lat_Y": 37.403156, "Lon_X": -5.991856, "CreationDate": "2014\/10\/04 21:21:32", "Creator": "Ayto.Sevilla", "EditDate": "2014\/10\/04 21:21:32", "Editor": "Ayto.Sevilla" }, "geometry": { "type": "Point", "coordinates": [ -5.991856369999937, 37.403155922000053 ] } },
{ "type": "Feature", "properties": { "FID": 26, "id_estacio": 143.0, "Direccion": "Calle Ramon de Carranza", "Aproximaci": "Calle Virgen de la Oliva", "Lat_Y": 37.371628, "Lon_X": -6.003318, "CreationDate": "2014\/10\/04 21:21:32", "Creator": "Ayto.Sevilla", "EditDate": "2014\/10\/04 21:21:32", "Editor": "Ayto.Sevilla" }, "geometry": { "type": "Point", "coordinates": [ -6.003317974999959, 37.371627944000068 ] } },
{ "type": "Feature", "properties": { "FID": 27, "id_estacio": 144.0, "Direccion": "Avenida de la Palmera", "Aproximaci": "Clinica de Fátima", "Lat_Y": 37.369106, "Lon_X": -5.988002, "CreationDate": "2014\/10\/04 21:21:32", "Creator": "Ayto.Sevilla", "EditDate": "2014\/10\/04 21:21:32", "Editor": "Ayto.Sevilla" }, "geometry": { "type": "Point", "coordinates": [ -5.988001698999938, 37.369105675000071 ] } },
{ "type": "Feature", "properties": { "FID": 28, "id_estacio": 14.0, "Direccion": "Avenida Sánchez Pizjuan", "Aproximaci": "Facultad de medicina", "Lat_Y": 37.406918, "Lon_X": -5.989079, "CreationDate": "2014\/10\/04 21:21:32", "Creator": "Ayto.Sevilla", "EditDate": "2014\/10\/04 21:21:32", "Editor": "Ayto.Sevilla" }, "geometry": { "type": "Point", "coordinates": [ -5.989078778999954, 37.406917952000072 ] } },
{ "type": "Feature", "properties": { "FID": 29, "id_estacio": 145.0, "Direccion": "Avenida Reina Mercedes", "Aproximaci": "Calle Profesor García González", "Lat_Y": 37.360226, "Lon_X": -5.986358, "CreationDate": "2014\/10\/04 21:21:32", "Creator": "Ayto.Sevilla", "EditDate": "2014\/10\/04 21:21:32", "Editor": "Ayto.Sevilla" }, "geometry": { "type": "Point", "coordinates": [ -5.98635778199997, 37.36022601600007 ] } },
{ "type": "Feature", "properties": { "FID": 30, "id_estacio": 15.0, "Direccion": "Calle Dr Marañon", "Aproximaci": "Calle San Juan de Ribera", "Lat_Y": 37.407227, "Lon_X": -5.985341, "CreationDate": "2014\/10\/04 21:21:32", "Creator": "Ayto.Sevilla", "EditDate": "2014\/10\/04 21:21:32", "Editor": "Ayto.Sevilla" }, "geometry": { "type": "Point", "coordinates": [ -5.985340888999929, 37.407226926000078 ] } },
{ "type": "Feature", "properties": { "FID": 31, "id_estacio": 146.0, "Direccion": "Avenida Reina Mercedes", "Aproximaci": "Calle Profesor García González", "Lat_Y": 37.360119, "Lon_X": -5.986358, "CreationDate": "2014\/10\/04 21:21:32", "Creator": "Ayto.Sevilla", "EditDate": "2014\/10\/04 21:21:32", "Editor": "Ayto.Sevilla" }, "geometry": { "type": "Point", "coordinates": [ -5.98635778199997, 37.360118914000054 ] } },
{ "type": "Feature", "properties": { "FID": 32, "id_estacio": 16.0, "Direccion": "Calle Manuel Villalobos", "Aproximaci": "Calle Sor Francisca Dorotea", "Lat_Y": 37.407028, "Lon_X": -5.982795, "CreationDate": "2014\/10\/04 21:21:32", "Creator": "Ayto.Sevilla", "EditDate": "2014\/10\/04 21:21:32", "Editor": "Ayto.Sevilla" }, "geometry": { "type": "Point", "coordinates": [ -5.982795063999959, 37.407027841000058 ] } },
{ "type": "Feature", "properties": { "FID": 33, "id_estacio": 147.0, "Direccion": "Carretera de Carmona", "Aproximaci": "Calle Maestro Solano", "Lat_Y": 37.400829, "Lon_X": -5.975233, "CreationDate": "2014\/10\/04 21:21:32", "Creator": "Ayto.Sevilla", "EditDate": "2014\/10\/04 21:21:32", "Editor": "Ayto.Sevilla" }, "geometry": { "type": "Point", "coordinates": [ -5.975233045999971, 37.400828821000061 ] } },
{ "type": "Feature", "properties": { "FID": 34, "id_estacio": 17.0, "Direccion": "Calle de Madreselva", "Aproximaci": "Ronda de Pio XII", "Lat_Y": 37.407173, "Lon_X": -5.978907, "CreationDate": "2014\/10\/04 21:21:32", "Creator": "Ayto.Sevilla", "EditDate": "2014\/10\/04 21:21:32", "Editor": "Ayto.Sevilla" }, "geometry": { "type": "Point", "coordinates": [ -5.978907154999945, 37.407172695000042 ] } },
{ "type": "Feature", "properties": { "FID": 35, "id_estacio": 18.0, "Direccion": "Avenida Eduardo Dato", "Aproximaci": "Calle Marqués del Nervión", "Lat_Y": 37.382, "Lon_X": -5.96814, "CreationDate": "2014\/10\/04 21:21:32", "Creator": "Ayto.Sevilla", "EditDate": "2014\/10\/04 21:21:32", "Editor": "Ayto.Sevilla" }, "geometry": { "type": "Point", "coordinates": [ -5.96813994799993, 37.382000265000045 ] } },
{ "type": "Feature", "properties": { "FID": 36, "id_estacio": 148.0, "Direccion": "Calle Tharsis", "Aproximaci": "Calle Aorno", "Lat_Y": 37.398758, "Lon_X": -5.97321, "CreationDate": "2014\/10\/04 21:21:32", "Creator": "Ayto.Sevilla", "EditDate": "2014\/10\/04 21:21:32", "Editor": "Ayto.Sevilla" }, "geometry": { "type": "Point", "coordinates": [ -5.973210039999969, 37.39875784700007 ] } },
{ "type": "Feature", "properties": { "FID": 37, "id_estacio": 19.0, "Direccion": "Parlamento", "Aproximaci": "Calle Don Fadrique", "Lat_Y": 37.40324, "Lon_X": -5.988962, "CreationDate": "2014\/10\/04 21:21:32", "Creator": "Ayto.Sevilla", "EditDate": "2014\/10\/04 21:21:32", "Editor": "Ayto.Sevilla" }, "geometry": { "type": "Point", "coordinates": [ -5.988961997999979, 37.403240127000061 ] } },
{ "type": "Feature", "properties": { "FID": 38, "id_estacio": 149.0, "Direccion": "Calle Arroyo", "Aproximaci": "Calle Tena", "Lat_Y": 37.397854, "Lon_X": -5.975711, "CreationDate": "2014\/10\/04 21:21:32", "Creator": "Ayto.Sevilla", "EditDate": "2014\/10\/04 21:21:32", "Editor": "Ayto.Sevilla" }, "geometry": { "type": "Point", "coordinates": [ -5.975710948999961, 37.397853651000048 ] } },
{ "type": "Feature", "properties": { "FID": 39, "id_estacio": 150.0, "Direccion": "Calle San Juan Bosco", "Aproximaci": "Calle Arroyo", "Lat_Y": 37.396782, "Lon_X": -5.978621, "CreationDate": "2014\/10\/04 21:21:32", "Creator": "Ayto.Sevilla", "EditDate": "2014\/10\/04 21:21:32", "Editor": "Ayto.Sevilla" }, "geometry": { "type": "Point", "coordinates": [ -5.97862059199997, 37.396781733000068 ] } },
{ "type": "Feature", "properties": { "FID": 40, "id_estacio": 20.0, "Direccion": "Calle San Juan de Ribera", "Aproximaci": "Calle Fray Isidoro de Sevilla", "Lat_Y": 37.404736, "Lon_X": -5.986699, "CreationDate": "2014\/10\/04 21:21:32", "Creator": "Ayto.Sevilla", "EditDate": "2014\/10\/04 21:21:32", "Editor": "Ayto.Sevilla" }, "geometry": { "type": "Point", "coordinates": [ -5.986699141999964, 37.404735826000035 ] } },
{ "type": "Feature", "properties": { "FID": 41, "id_estacio": 151.0, "Direccion": "Calle Urquiza", "Aproximaci": "Esquina calle Venecia", "Lat_Y": 37.394619, "Lon_X": -5.979927, "CreationDate": "2014\/10\/04 21:21:32", "Creator": "Ayto.Sevilla", "EditDate": "2014\/10\/04 21:21:32", "Editor": "Ayto.Sevilla" }, "geometry": { "type": "Point", "coordinates": [ -5.979926742999965, 37.39461929600003 ] } },
{ "type": "Feature", "properties": { "FID": 42, "id_estacio": 152.0, "Direccion": "Calle Samaniego", "Aproximaci": "Calle Esperanza de la Trinidad", "Lat_Y": 37.395821, "Lon_X": -5.974481, "CreationDate": "2014\/10\/04 21:21:32", "Creator": "Ayto.Sevilla", "EditDate": "2014\/10\/04 21:21:32", "Editor": "Ayto.Sevilla" }, "geometry": { "type": "Point", "coordinates": [ -5.974481155999968, 37.395821133000027 ] } },
{ "type": "Feature", "properties": { "FID": 43, "id_estacio": 21.0, "Direccion": "Calle Manuel Villalobos", "Aproximaci": "Calle Madre San Marcelo", "Lat_Y": 37.405506, "Lon_X": -5.981498, "CreationDate": "2014\/10\/04 21:21:32", "Creator": "Ayto.Sevilla", "EditDate": "2014\/10\/04 21:21:32", "Editor": "Ayto.Sevilla" }, "geometry": { "type": "Point", "coordinates": [ -5.981497895999951, 37.405505785000059 ] } },
{ "type": "Feature", "properties": { "FID": 44, "id_estacio": 22.0, "Direccion": "Avenida de Llanes", "Aproximaci": "Avenida de Miraflores", "Lat_Y": 37.405144, "Lon_X": -5.974867, "CreationDate": "2014\/10\/04 21:21:32", "Creator": "Ayto.Sevilla", "EditDate": "2014\/10\/04 21:21:32", "Editor": "Ayto.Sevilla" }, "geometry": { "type": "Point", "coordinates": [ -5.97486743099995, 37.405143998000028 ] } },
{ "type": "Feature", "properties": { "FID": 45, "id_estacio": 153.0, "Direccion": "Avenida Reina Mercedes", "Aproximaci": "Escuela de Arquitectura", "Lat_Y": 37.362988, "Lon_X": -5.986259, "CreationDate": "2014\/10\/04 21:21:32", "Creator": "Ayto.Sevilla", "EditDate": "2014\/10\/04 21:21:32", "Editor": "Ayto.Sevilla" }, "geometry": { "type": "Point", "coordinates": [ -5.986258966999969, 37.362987769000028 ] } },
{ "type": "Feature", "properties": { "FID": 46, "id_estacio": 23.0, "Direccion": "Parlamento", "Aproximaci": "Calle San Juan de Ribera", "Lat_Y": 37.403358, "Lon_X": -5.987928, "CreationDate": "2014\/10\/04 21:21:32", "Creator": "Ayto.Sevilla", "EditDate": "2014\/10\/04 21:21:32", "Editor": "Ayto.Sevilla" }, "geometry": { "type": "Point", "coordinates": [ -5.987928036999961, 37.403357872000072 ] } },
{ "type": "Feature", "properties": { "FID": 47, "id_estacio": 154.0, "Direccion": "Avenida Kansas City", "Aproximaci": "Calle Naranjito de Triana", "Lat_Y": 37.394875, "Lon_X": -5.968394, "CreationDate": "2014\/10\/04 21:21:32", "Creator": "Ayto.Sevilla", "EditDate": "2014\/10\/04 21:21:32", "Editor": "Ayto.Sevilla" }, "geometry": { "type": "Point", "coordinates": [ -5.968394170999943, 37.394874795000078 ] } },
{ "type": "Feature", "properties": { "FID": 48, "id_estacio": 24.0, "Direccion": "Calle León XIII", "Aproximaci": "Calle Fray Isidoro de Sevilla", "Lat_Y": 37.404034, "Lon_X": -5.984668, "CreationDate": "2014\/10\/04 21:21:32", "Creator": "Ayto.Sevilla", "EditDate": "2014\/10\/04 21:21:32", "Editor": "Ayto.Sevilla" }, "geometry": { "type": "Point", "coordinates": [ -5.984668050999971, 37.404033651000077 ] } },
{ "type": "Feature", "properties": { "FID": 49, "id_estacio": 155.0, "Direccion": "Avenida Kansas City", "Aproximaci": "Avenida El Greco", "Lat_Y": 37.392906, "Lon_X": -5.970766, "CreationDate": "2014\/10\/04 21:21:32", "Creator": "Ayto.Sevilla", "EditDate": "2014\/10\/04 21:21:32", "Editor": "Ayto.Sevilla" }, "geometry": { "type": "Point", "coordinates": [ -5.970765723999932, 37.39290571600003 ] } },
{ "type": "Feature", "properties": { "FID": 50, "id_estacio": 25.0, "Direccion": "Avenida de la Cruz Roja", "Aproximaci": "Calle Albaida", "Lat_Y": 37.403145, "Lon_X": -5.981085, "CreationDate": "2014\/10\/04 21:21:32", "Creator": "Ayto.Sevilla", "EditDate": "2014\/10\/04 21:21:32", "Editor": "Ayto.Sevilla" }, "geometry": { "type": "Point", "coordinates": [ -5.981084670999962, 37.403145218000077 ] } },
{ "type": "Feature", "properties": { "FID": 51, "id_estacio": 156.0, "Direccion": "Avenida Kansas City", "Aproximaci": "Baltasar Gracián", "Lat_Y": 37.391483, "Lon_X": -5.972649, "CreationDate": "2014\/10\/04 21:21:32", "Creator": "Ayto.Sevilla", "EditDate": "2014\/10\/04 21:21:32", "Editor": "Ayto.Sevilla" }, "geometry": { "type": "Point", "coordinates": [ -5.972648591999928, 37.391483294000068 ] } },
{ "type": "Feature", "properties": { "FID": 52, "id_estacio": 26.0, "Direccion": "Avenida de Miraflores", "Aproximaci": "Calle Manuel Ródenas", "Lat_Y": 37.402542, "Lon_X": -5.977635, "CreationDate": "2014\/10\/04 21:21:32", "Creator": "Ayto.Sevilla", "EditDate": "2014\/10\/04 21:21:32", "Editor": "Ayto.Sevilla" }, "geometry": { "type": "Point", "coordinates": [ -5.977635140999951, 37.402542219000054 ] } },
{ "type": "Feature", "properties": { "FID": 53, "id_estacio": 157.0, "Direccion": "Avenida Cardenal Bueno Monreal", "Aproximaci": "Avenida Ramón Carande", "Lat_Y": 37.369778, "Lon_X": -5.978165, "CreationDate": "2014\/10\/04 21:21:32", "Creator": "Ayto.Sevilla", "EditDate": "2014\/10\/04 21:21:32", "Editor": "Ayto.Sevilla" }, "geometry": { "type": "Point", "coordinates": [ -5.97816514699997, 37.369778193000059 ] } },
{ "type": "Feature", "properties": { "FID": 54, "id_estacio": 27.0, "Direccion": "Avenida de Llanes", "Aproximaci": "Calle Escultor Francisco Buiza", "Lat_Y": 37.403881, "Lon_X": -5.972099, "CreationDate": "2014\/10\/04 21:21:32", "Creator": "Ayto.Sevilla", "EditDate": "2014\/10\/04 21:21:32", "Editor": "Ayto.Sevilla" }, "geometry": { "type": "Point", "coordinates": [ -5.972098823999943, 37.403880941000068 ] } },
{ "type": "Feature", "properties": { "FID": 55, "id_estacio": 28.0, "Direccion": "Calle Rafael Salgado", "Aproximaci": "Calle Castillo Alcala de Guadaira", "Lat_Y": 37.360332, "Lon_X": -5.976723, "CreationDate": "2014\/10\/04 21:21:32", "Creator": "Ayto.Sevilla", "EditDate": "2014\/10\/04 21:21:32", "Editor": "Ayto.Sevilla" }, "geometry": { "type": "Point", "coordinates": [ -5.976723350999976, 37.360331690000066 ] } },
{ "type": "Feature", "properties": { "FID": 56, "id_estacio": 158.0, "Direccion": "Avenida Cardenal Bueno Monreal", "Aproximaci": "Calle Bogota", "Lat_Y": 37.368866, "Lon_X": -5.981573, "CreationDate": "2014\/10\/04 21:21:32", "Creator": "Ayto.Sevilla", "EditDate": "2014\/10\/04 21:21:32", "Editor": "Ayto.Sevilla" }, "geometry": { "type": "Point", "coordinates": [ -5.981573354999966, 37.368865795000033 ] } },
{ "type": "Feature", "properties": { "FID": 57, "id_estacio": 29.0, "Direccion": "Carretera de Carmona", "Aproximaci": "Avenida de Llanes", "Lat_Y": 37.402534, "Lon_X": -5.970082, "CreationDate": "2014\/10\/04 21:21:32", "Creator": "Ayto.Sevilla", "EditDate": "2014\/10\/04 21:21:32", "Editor": "Ayto.Sevilla" }, "geometry": { "type": "Point", "coordinates": [ -5.97008210599995, 37.40253365600006 ] } },
{ "type": "Feature", "properties": { "FID": 58, "id_estacio": 159.0, "Direccion": "Avenida Cardenal Bueno Monreal", "Aproximaci": "Avenida Manuel Siurot", "Lat_Y": 37.368046, "Lon_X": -5.984859, "CreationDate": "2014\/10\/04 21:21:32", "Creator": "Ayto.Sevilla", "EditDate": "2014\/10\/04 21:21:32", "Editor": "Ayto.Sevilla" }, "geometry": { "type": "Point", "coordinates": [ -5.984859391999976, 37.368046198000059 ] } },
{ "type": "Feature", "properties": { "FID": 59, "id_estacio": 30.0, "Direccion": "Avenida Eduardo Dato", "Aproximaci": "Detrás Estadio Sánchez Pizjuan", "Lat_Y": 37.382519, "Lon_X": -5.970812, "CreationDate": "2014\/10\/04 21:21:32", "Creator": "Ayto.Sevilla", "EditDate": "2014\/10\/04 21:21:32", "Editor": "Ayto.Sevilla" }, "geometry": { "type": "Point", "coordinates": [ -5.97081243599996, 37.382519200000047 ] } },
{ "type": "Feature", "properties": { "FID": 60, "id_estacio": 160.0, "Direccion": "Calle Arjona", "Aproximaci": "Puente de Triana", "Lat_Y": 37.387516, "Lon_X": -6.001927, "CreationDate": "2014\/10\/04 21:21:32", "Creator": "Ayto.Sevilla", "EditDate": "2014\/10\/04 21:21:32", "Editor": "Ayto.Sevilla" }, "geometry": { "type": "Point", "coordinates": [ -6.001927382999952, 37.387516356000049 ] } },
{ "type": "Feature", "properties": { "FID": 61, "id_estacio": 31.0, "Direccion": "Avenida de Miraflores", "Aproximaci": "Calle Albaida", "Lat_Y": 37.400414, "Lon_X": -5.979831, "CreationDate": "2014\/10\/04 21:21:32", "Creator": "Ayto.Sevilla", "EditDate": "2014\/10\/04 21:21:32", "Editor": "Ayto.Sevilla" }, "geometry": { "type": "Point", "coordinates": [ -5.979830622999941, 37.400414202000036 ] } },
{ "type": "Feature", "properties": { "FID": 62, "id_estacio": 161.0, "Direccion": "Avenida Alcalde Manuel del Valle", "Aproximaci": "Calle Baltasar de Alcázar", "Lat_Y": 37.399986, "Lon_X": -5.969145, "CreationDate": "2014\/10\/04 21:21:32", "Creator": "Ayto.Sevilla", "EditDate": "2014\/10\/04 21:21:32", "Editor": "Ayto.Sevilla" }, "geometry": { "type": "Point", "coordinates": [ -5.969145162999951, 37.399986023000054 ] } },
{ "type": "Feature", "properties": { "FID": 63, "id_estacio": 32.0, "Direccion": "Calle Muñoz León", "Aproximaci": "Calle Morera", "Lat_Y": 37.402061, "Lon_X": -5.986304, "CreationDate": "2014\/10\/04 21:21:32", "Creator": "Ayto.Sevilla", "EditDate": "2014\/10\/04 21:21:32", "Editor": "Ayto.Sevilla" }, "geometry": { "type": "Point", "coordinates": [ -5.986303882999948, 37.402061244000038 ] } },
{ "type": "Feature", "properties": { "FID": 64, "id_estacio": 162.0, "Direccion": "Avenida Solea", "Aproximaci": "Calle Media Granaína", "Lat_Y": 37.391525, "Lon_X": -5.968482, "CreationDate": "2014\/10\/04 21:21:32", "Creator": "Ayto.Sevilla", "EditDate": "2014\/10\/04 21:21:32", "Editor": "Ayto.Sevilla" }, "geometry": { "type": "Point", "coordinates": [ -5.968482205999976, 37.39152468900005 ] } },
{ "type": "Feature", "properties": { "FID": 65, "id_estacio": 33.0, "Direccion": "Calle León XIII", "Aproximaci": "Calle Antonio Pantión", "Lat_Y": 37.401531, "Lon_X": -5.983708, "CreationDate": "2014\/10\/04 21:21:32", "Creator": "Ayto.Sevilla", "EditDate": "2014\/10\/04 21:21:32", "Editor": "Ayto.Sevilla" }, "geometry": { "type": "Point", "coordinates": [ -5.98370775199993, 37.401531026000043 ] } },
{ "type": "Feature", "properties": { "FID": 66, "id_estacio": 34.0, "Direccion": "Plaza Pumarejo", "Aproximaci": "Calle San Luis", "Lat_Y": 37.400932, "Lon_X": -5.988557, "CreationDate": "2014\/10\/04 21:21:32", "Creator": "Ayto.Sevilla", "EditDate": "2014\/10\/04 21:21:32", "Editor": "Ayto.Sevilla" }, "geometry": { "type": "Point", "coordinates": [ -5.988556857999981, 37.400932297000054 ] } },
{ "type": "Feature", "properties": { "FID": 67, "id_estacio": 163.0, "Direccion": "Calle Sinaí", "Aproximaci": "Calle Baltazar Gracián", "Lat_Y": 37.389927, "Lon_X": -5.970793, "CreationDate": "2014\/10\/04 21:21:32", "Creator": "Ayto.Sevilla", "EditDate": "2014\/10\/04 21:21:32", "Editor": "Ayto.Sevilla" }, "geometry": { "type": "Point", "coordinates": [ -5.970792672999949, 37.38992666300004 ] } },
{ "type": "Feature", "properties": { "FID": 68, "id_estacio": 35.0, "Direccion": "Alameda de Hercules", "Aproximaci": "Calle Peris Mencheta", "Lat_Y": 37.400818, "Lon_X": -5.993774, "CreationDate": "2014\/10\/04 21:21:32", "Creator": "Ayto.Sevilla", "EditDate": "2014\/10\/04 21:21:32", "Editor": "Ayto.Sevilla" }, "geometry": { "type": "Point", "coordinates": [ -5.993774272999929, 37.400818116000039 ] } },
{ "type": "Feature", "properties": { "FID": 69, "id_estacio": 36.0, "Direccion": "Calle San Vicente", "Aproximaci": "Calle Guadalquivir", "Lat_Y": 37.400543, "Lon_X": -5.998318, "CreationDate": "2014\/10\/04 21:21:32", "Creator": "Ayto.Sevilla", "EditDate": "2014\/10\/04 21:21:32", "Editor": "Ayto.Sevilla" }, "geometry": { "type": "Point", "coordinates": [ -5.998317951999979, 37.400542656000027 ] } },
{ "type": "Feature", "properties": { "FID": 70, "id_estacio": 164.0, "Direccion": "Calle Luis Montoto", "Aproximaci": "Calle El Greco", "Lat_Y": 37.387638, "Lon_X": -5.965657, "CreationDate": "2014\/10\/04 21:21:32", "Creator": "Ayto.Sevilla", "EditDate": "2014\/10\/04 21:21:32", "Editor": "Ayto.Sevilla" }, "geometry": { "type": "Point", "coordinates": [ -5.965657004999969, 37.387637694000034 ] } },
{ "type": "Feature", "properties": { "FID": 71, "id_estacio": 165.0, "Direccion": "Avenida de Andalucia", "Aproximaci": "Centro Comercial Los Arcos", "Lat_Y": 37.387638, "Lon_X": -5.961011, "CreationDate": "2014\/10\/04 21:21:32", "Creator": "Ayto.Sevilla", "EditDate": "2014\/10\/04 21:21:32", "Editor": "Ayto.Sevilla" }, "geometry": { "type": "Point", "coordinates": [ -5.961010917999943, 37.387637694000034 ] } },
{ "type": "Feature", "properties": { "FID": 72, "id_estacio": 37.0, "Direccion": "Alameda de Hércules", "Aproximaci": "Calle Vulcano", "Lat_Y": 37.398609, "Lon_X": -5.99357, "CreationDate": "2014\/10\/04 21:21:32", "Creator": "Ayto.Sevilla", "EditDate": "2014\/10\/04 21:21:32", "Editor": "Ayto.Sevilla" }, "geometry": { "type": "Point", "coordinates": [ -5.993570354999974, 37.398608694000075 ] } },
{ "type": "Feature", "properties": { "FID": 73, "id_estacio": 166.0, "Direccion": "Ronda del Tamarguillo", "Aproximaci": "Centro Comercial Los Arcos", "Lat_Y": 37.388538, "Lon_X": -5.959222, "CreationDate": "2014\/10\/04 21:21:32", "Creator": "Ayto.Sevilla", "EditDate": "2014\/10\/04 21:21:32", "Editor": "Ayto.Sevilla" }, "geometry": { "type": "Point", "coordinates": [ -5.959222371999942, 37.388537730000053 ] } },
{ "type": "Feature", "properties": { "FID": 74, "id_estacio": 38.0, "Direccion": "Calle del Inca Garcilaso", "Aproximaci": "Calle Juan Antonio de Vizarrón", "Lat_Y": 37.392025, "Lon_X": -6.011066, "CreationDate": "2014\/10\/04 21:21:32", "Creator": "Ayto.Sevilla", "EditDate": "2014\/10\/04 21:21:32", "Editor": "Ayto.Sevilla" }, "geometry": { "type": "Point", "coordinates": [ -6.011065943999938, 37.392025002000025 ] } },
{ "type": "Feature", "properties": { "FID": 75, "id_estacio": 167.0, "Direccion": "Glorieta Bizco Amate", "Aproximaci": "Ramón y Cajal, Esq. Ronda", "Lat_Y": 37.373352, "Lon_X": -5.964932, "CreationDate": "2014\/10\/04 21:21:32", "Creator": "Ayto.Sevilla", "EditDate": "2014\/10\/04 21:21:32", "Editor": "Ayto.Sevilla" }, "geometry": { "type": "Point", "coordinates": [ -5.964932063999981, 37.373352004000026 ] } },
{ "type": "Feature", "properties": { "FID": 76, "id_estacio": 168.0, "Direccion": "Avenida Ramón y Cajal", "Aproximaci": "Avenida de la Ciudad Jardín", "Lat_Y": 37.375114, "Lon_X": -5.967674, "CreationDate": "2014\/10\/04 21:21:32", "Creator": "Ayto.Sevilla", "EditDate": "2014\/10\/04 21:21:32", "Editor": "Ayto.Sevilla" }, "geometry": { "type": "Point", "coordinates": [ -5.967673721999972, 37.375113860000056 ] } },
{ "type": "Feature", "properties": { "FID": 77, "id_estacio": 169.0, "Direccion": "Avenida Ramón y Cajal", "Aproximaci": "Calle Villegas Marmolejo", "Lat_Y": 37.376698, "Lon_X": -5.97307, "CreationDate": "2014\/10\/04 21:21:32", "Creator": "Ayto.Sevilla", "EditDate": "2014\/10\/04 21:21:32", "Editor": "Ayto.Sevilla" }, "geometry": { "type": "Point", "coordinates": [ -5.973069901999963, 37.37669792500003 ] } },
{ "type": "Feature", "properties": { "FID": 78, "id_estacio": 39.0, "Direccion": "Avenida de Torneo", "Aproximaci": "Calle Curtidurías", "Lat_Y": 37.397881, "Lon_X": -5.998519, "CreationDate": "2014\/10\/04 21:21:32", "Creator": "Ayto.Sevilla", "EditDate": "2014\/10\/04 21:21:32", "Editor": "Ayto.Sevilla" }, "geometry": { "type": "Point", "coordinates": [ -5.998519173999966, 37.397880770000029 ] } },
{ "type": "Feature", "properties": { "FID": 79, "id_estacio": 170.0, "Direccion": "Plaza Antonio Aparicio Herrero", "Aproximaci": " ", "Lat_Y": 37.37899, "Lon_X": -5.968885, "CreationDate": "2014\/10\/04 21:21:32", "Creator": "Ayto.Sevilla", "EditDate": "2014\/10\/04 21:21:32", "Editor": "Ayto.Sevilla" }, "geometry": { "type": "Point", "coordinates": [ -5.968884650999939, 37.378990084000066 ] } },
{ "type": "Feature", "properties": { "FID": 80, "id_estacio": 40.0, "Direccion": "Avenida Reina Mercedes", "Aproximaci": "Glorieta Alcalde de Parias Merry", "Lat_Y": 37.356396, "Lon_X": -5.986558, "CreationDate": "2014\/10\/04 21:21:32", "Creator": "Ayto.Sevilla", "EditDate": "2014\/10\/04 21:21:32", "Editor": "Ayto.Sevilla" }, "geometry": { "type": "Point", "coordinates": [ -5.986558105999961, 37.356395951000025 ] } },
{ "type": "Feature", "properties": { "FID": 81, "id_estacio": 171.0, "Direccion": "Calle Alfonso Lasso de la Vega", "Aproximaci": "Párroco Antonio González", "Lat_Y": 37.366135, "Lon_X": -5.974922, "CreationDate": "2014\/10\/04 21:21:32", "Creator": "Ayto.Sevilla", "EditDate": "2014\/10\/04 21:21:32", "Editor": "Ayto.Sevilla" }, "geometry": { "type": "Point", "coordinates": [ -5.974922227999969, 37.366134959000078 ] } },
{ "type": "Feature", "properties": { "FID": 82, "id_estacio": 41.0, "Direccion": "Plaza Calderón de la Barca", "Aproximaci": "Calle Amargura", "Lat_Y": 37.399551, "Lon_X": -5.990966, "CreationDate": "2014\/10\/04 21:21:32", "Creator": "Ayto.Sevilla", "EditDate": "2014\/10\/04 21:21:32", "Editor": "Ayto.Sevilla" }, "geometry": { "type": "Point", "coordinates": [ -5.990966138999966, 37.399550704000035 ] } },
{ "type": "Feature", "properties": { "FID": 83, "id_estacio": 172.0, "Direccion": "Ronda Tamarguillo", "Aproximaci": "Alfonso Laso de la Vega", "Lat_Y": 37.36713, "Lon_X": -5.971252, "CreationDate": "2014\/10\/04 21:21:32", "Creator": "Ayto.Sevilla", "EditDate": "2014\/10\/04 21:21:32", "Editor": "Ayto.Sevilla" }, "geometry": { "type": "Point", "coordinates": [ -5.971251711999969, 37.367130208000049 ] } },
{ "type": "Feature", "properties": { "FID": 84, "id_estacio": 42.0, "Direccion": "Plaza Cronista", "Aproximaci": "Calle Divina Pastora", "Lat_Y": 37.398811, "Lon_X": -5.989523, "CreationDate": "2014\/10\/04 21:21:32", "Creator": "Ayto.Sevilla", "EditDate": "2014\/10\/04 21:21:32", "Editor": "Ayto.Sevilla" }, "geometry": { "type": "Point", "coordinates": [ -5.989523444999975, 37.39881065700007 ] } },
{ "type": "Feature", "properties": { "FID": 85, "id_estacio": 173.0, "Direccion": "Ronda Tamarguillo", "Aproximaci": "Avenida de la Paz", "Lat_Y": 37.370045, "Lon_X": -5.968101, "CreationDate": "2014\/10\/04 21:21:32", "Creator": "Ayto.Sevilla", "EditDate": "2014\/10\/04 21:21:32", "Editor": "Ayto.Sevilla" }, "geometry": { "type": "Point", "coordinates": [ -5.96810132, 37.37004520000005 ] } },
{ "type": "Feature", "properties": { "FID": 86, "id_estacio": 43.0, "Direccion": "Ronda Capuchinos", "Aproximaci": "Calle Maestro Quiroga", "Lat_Y": 37.399139, "Lon_X": -5.982737, "CreationDate": "2014\/10\/04 21:21:32", "Creator": "Ayto.Sevilla", "EditDate": "2014\/10\/04 21:21:32", "Editor": "Ayto.Sevilla" }, "geometry": { "type": "Point", "coordinates": [ -5.982736672999977, 37.399138933000074 ] } },
{ "type": "Feature", "properties": { "FID": 87, "id_estacio": 44.0, "Direccion": "Ronda Capuchinos", "Aproximaci": "Calle Corinto", "Lat_Y": 37.398323, "Lon_X": -5.981774, "CreationDate": "2014\/10\/04 21:21:32", "Creator": "Ayto.Sevilla", "EditDate": "2014\/10\/04 21:21:32", "Editor": "Ayto.Sevilla" }, "geometry": { "type": "Point", "coordinates": [ -5.981773678999957, 37.398323235000078 ] } },
{ "type": "Feature", "properties": { "FID": 88, "id_estacio": 174.0, "Direccion": "Ronda Tamarguillo", "Aproximaci": "Marqués de Pickman", "Lat_Y": 37.380611, "Lon_X": -5.960573, "CreationDate": "2014\/10\/04 21:21:32", "Creator": "Ayto.Sevilla", "EditDate": "2014\/10\/04 21:21:32", "Editor": "Ayto.Sevilla" }, "geometry": { "type": "Point", "coordinates": [ -5.960573437999926, 37.380611185000078 ] } },
{ "type": "Feature", "properties": { "FID": 89, "id_estacio": 45.0, "Direccion": "Carretera de Carmona", "Aproximaci": "Calle de Francisco de Ariño", "Lat_Y": 37.39991, "Lon_X": -5.977796, "CreationDate": "2014\/10\/04 21:21:32", "Creator": "Ayto.Sevilla", "EditDate": "2014\/10\/04 21:21:32", "Editor": "Ayto.Sevilla" }, "geometry": { "type": "Point", "coordinates": [ -5.977795938999975, 37.399909664000063 ] } },
{ "type": "Feature", "properties": { "FID": 90, "id_estacio": 175.0, "Direccion": "Ronda Tamarguillo", "Aproximaci": "Plaza Ruperto Chapí", "Lat_Y": 37.377731, "Lon_X": -5.960825, "CreationDate": "2014\/10\/04 21:21:32", "Creator": "Ayto.Sevilla", "EditDate": "2014\/10\/04 21:21:32", "Editor": "Ayto.Sevilla" }, "geometry": { "type": "Point", "coordinates": [ -5.960824966999951, 37.377730868000071 ] } },
{ "type": "Feature", "properties": { "FID": 91, "id_estacio": 46.0, "Direccion": "Plaza del Pelicano", "Aproximaci": "Calle Enladrillada", "Lat_Y": 37.39761, "Lon_X": -5.984116, "CreationDate": "2014\/10\/04 21:21:32", "Creator": "Ayto.Sevilla", "EditDate": "2014\/10\/04 21:21:32", "Editor": "Ayto.Sevilla" }, "geometry": { "type": "Point", "coordinates": [ -5.984115586999962, 37.39761029400006 ] } },
{ "type": "Feature", "properties": { "FID": 92, "id_estacio": 176.0, "Direccion": "Avenida de la Ciudad Jardín", "Aproximaci": "Calle Profesor Braña", "Lat_Y": 37.37756, "Lon_X": -5.966566, "CreationDate": "2014\/10\/04 21:21:32", "Creator": "Ayto.Sevilla", "EditDate": "2014\/10\/04 21:21:32", "Editor": "Ayto.Sevilla" }, "geometry": { "type": "Point", "coordinates": [ -5.966566099999966, 37.377560259000063 ] } },
{ "type": "Feature", "properties": { "FID": 93, "id_estacio": 47.0, "Direccion": "Calle Hiniesta", "Aproximaci": "Convento Santa Isabel", "Lat_Y": 37.396458, "Lon_X": -5.987466, "CreationDate": "2014\/10\/04 21:21:32", "Creator": "Ayto.Sevilla", "EditDate": "2014\/10\/04 21:21:32", "Editor": "Ayto.Sevilla" }, "geometry": { "type": "Point", "coordinates": [ -5.987466302999962, 37.39645772800003 ] } },
{ "type": "Feature", "properties": { "FID": 94, "id_estacio": 48.0, "Direccion": "Calle Churruca", "Aproximaci": "Calle González Cuadrado", "Lat_Y": 37.397221, "Lon_X": -5.991182, "CreationDate": "2014\/10\/04 21:21:32", "Creator": "Ayto.Sevilla", "EditDate": "2014\/10\/04 21:21:32", "Editor": "Ayto.Sevilla" }, "geometry": { "type": "Point", "coordinates": [ -5.991181734999941, 37.397221350000052 ] } },
{ "type": "Feature", "properties": { "FID": 95, "id_estacio": 177.0, "Direccion": "Avenida Alcalde Juan Fernández", "Aproximaci": "Calle Profesor Buenaventura", "Lat_Y": 37.373112, "Lon_X": -5.969032, "CreationDate": "2014\/10\/04 21:21:32", "Creator": "Ayto.Sevilla", "EditDate": "2014\/10\/04 21:21:32", "Editor": "Ayto.Sevilla" }, "geometry": { "type": "Point", "coordinates": [ -5.96903197499995, 37.373112137000078 ] } },
{ "type": "Feature", "properties": { "FID": 96, "id_estacio": 178.0, "Direccion": "Calle Ibiza", "Aproximaci": "Avenida de la Paz", "Lat_Y": 37.373211, "Lon_X": -5.973895, "CreationDate": "2014\/10\/04 21:21:32", "Creator": "Ayto.Sevilla", "EditDate": "2014\/10\/04 21:21:32", "Editor": "Ayto.Sevilla" }, "geometry": { "type": "Point", "coordinates": [ -5.973894555999948, 37.373210654000047 ] } },
{ "type": "Feature", "properties": { "FID": 97, "id_estacio": 49.0, "Direccion": "Alameda de Hercules", "Aproximaci": "Calle Amor de Dios", "Lat_Y": 37.396938, "Lon_X": -5.993906, "CreationDate": "2014\/10\/04 21:21:32", "Creator": "Ayto.Sevilla", "EditDate": "2014\/10\/04 21:21:32", "Editor": "Ayto.Sevilla" }, "geometry": { "type": "Point", "coordinates": [ -5.993906324999955, 37.396938026000043 ] } },
{ "type": "Feature", "properties": { "FID": 98, "id_estacio": 50.0, "Direccion": "Calle de Hernán Cortés", "Aproximaci": "Calle Eslava", "Lat_Y": 37.397572, "Lon_X": -5.99669, "CreationDate": "2014\/10\/04 21:21:32", "Creator": "Ayto.Sevilla", "EditDate": "2014\/10\/04 21:21:32", "Editor": "Ayto.Sevilla" }, "geometry": { "type": "Point", "coordinates": [ -5.996690203999947, 37.397571757000037 ] } },
{ "type": "Feature", "properties": { "FID": 99, "id_estacio": 179.0, "Direccion": "Ronda Urbana Norte", "Aproximaci": "Juventudes Musicales", "Lat_Y": 37.413208, "Lon_X": -5.98514, "CreationDate": "2014\/10\/04 21:21:32", "Creator": "Ayto.Sevilla", "EditDate": "2014\/10\/04 21:21:32", "Editor": "Ayto.Sevilla" }, "geometry": { "type": "Point", "coordinates": [ -5.985139665999952, 37.41320779800003 ] } },
{ "type": "Feature", "properties": { "FID": 100, "id_estacio": 51.0, "Direccion": "Avenida Torneo", "Aproximaci": "Calle Luis Rey Romero", "Lat_Y": 37.395599, "Lon_X": -6.002384, "CreationDate": "2014\/10\/04 21:21:32", "Creator": "Ayto.Sevilla", "EditDate": "2014\/10\/04 21:21:32", "Editor": "Ayto.Sevilla" }, "geometry": { "type": "Point", "coordinates": [ -6.002383726999938, 37.395599180000033 ] } },
{ "type": "Feature", "properties": { "FID": 101, "id_estacio": 180.0, "Direccion": "Calle Doctor Jaime Marcos", "Aproximaci": "Calle Doctor Fedriani", "Lat_Y": 37.409676, "Lon_X": -5.984358, "CreationDate": "2014\/10\/04 21:21:32", "Creator": "Ayto.Sevilla", "EditDate": "2014\/10\/04 21:21:32", "Editor": "Ayto.Sevilla" }, "geometry": { "type": "Point", "coordinates": [ -5.984358131999954, 37.409675845000038 ] } },
{ "type": "Feature", "properties": { "FID": 102, "id_estacio": 52.0, "Direccion": "Calle del Inca Garcilaso", "Aproximaci": "Calle Jerónimo de Aguilar", "Lat_Y": 37.394142, "Lon_X": -6.010476, "CreationDate": "2014\/10\/04 21:21:32", "Creator": "Ayto.Sevilla", "EditDate": "2014\/10\/04 21:21:32", "Editor": "Ayto.Sevilla" }, "geometry": { "type": "Point", "coordinates": [ -6.010475750999944, 37.394141838000053 ] } },
{ "type": "Feature", "properties": { "FID": 103, "id_estacio": 181.0, "Direccion": "Ronda Urbana Norte", "Aproximaci": "Calle Doctor Fedriani", "Lat_Y": 37.413418, "Lon_X": -5.982516, "CreationDate": "2014\/10\/04 21:21:32", "Creator": "Ayto.Sevilla", "EditDate": "2014\/10\/04 21:21:32", "Editor": "Ayto.Sevilla" }, "geometry": { "type": "Point", "coordinates": [ -5.982515687999978, 37.413418282000066 ] } },
{ "type": "Feature", "properties": { "FID": 104, "id_estacio": 53.0, "Direccion": "Calle Reyes Católicos", "Aproximaci": "Calle Gravina", "Lat_Y": 37.389301, "Lon_X": -5.999584, "CreationDate": "2014\/10\/04 21:21:32", "Creator": "Ayto.Sevilla", "EditDate": "2014\/10\/04 21:21:32", "Editor": "Ayto.Sevilla" }, "geometry": { "type": "Point", "coordinates": [ -5.999583677999965, 37.389300719000062 ] } },
{ "type": "Feature", "properties": { "FID": 105, "id_estacio": 182.0, "Direccion": "Calle Victoria Kent", "Aproximaci": "Avenida Alcalde Manuel del Valle", "Lat_Y": 37.414639, "Lon_X": -5.97387, "CreationDate": "2014\/10\/04 21:21:32", "Creator": "Ayto.Sevilla", "EditDate": "2014\/10\/04 21:21:32", "Editor": "Ayto.Sevilla" }, "geometry": { "type": "Point", "coordinates": [ -5.973870300999977, 37.414639083000054 ] } },
{ "type": "Feature", "properties": { "FID": 106, "id_estacio": 54.0, "Direccion": "Plaza San Juan de la Palma", "Aproximaci": "Iglesia", "Lat_Y": 37.395222, "Lon_X": -5.990926, "CreationDate": "2014\/10\/04 21:21:32", "Creator": "Ayto.Sevilla", "EditDate": "2014\/10\/04 21:21:32", "Editor": "Ayto.Sevilla" }, "geometry": { "type": "Point", "coordinates": [ -5.990925714999946, 37.39522164400006 ] } },
{ "type": "Feature", "properties": { "FID": 107, "id_estacio": 55.0, "Direccion": "Calle de Maria Auxiliadora", "Aproximaci": "Calle Gonzalo de Bilbao", "Lat_Y": 37.393433, "Lon_X": -5.983788, "CreationDate": "2014\/10\/04 21:21:32", "Creator": "Ayto.Sevilla", "EditDate": "2014\/10\/04 21:21:32", "Editor": "Ayto.Sevilla" }, "geometry": { "type": "Point", "coordinates": [ -5.983787701999972, 37.39343314000007 ] } },
{ "type": "Feature", "properties": { "FID": 108, "id_estacio": 56.0, "Direccion": "Plaza Ponce de Leon", "Aproximaci": "Calle Juan de Mesa", "Lat_Y": 37.393101, "Lon_X": -5.987667, "CreationDate": "2014\/10\/04 21:21:32", "Creator": "Ayto.Sevilla", "EditDate": "2014\/10\/04 21:21:32", "Editor": "Ayto.Sevilla" }, "geometry": { "type": "Point", "coordinates": [ -5.987666626999953, 37.393101270000045 ] } },
{ "type": "Feature", "properties": { "FID": 109, "id_estacio": 57.0, "Direccion": "Plaza Cristo de Burgos", "Aproximaci": "Plaza de San Pedro", "Lat_Y": 37.392216, "Lon_X": -5.989921, "CreationDate": "2014\/10\/04 21:21:32", "Creator": "Ayto.Sevilla", "EditDate": "2014\/10\/04 21:21:32", "Editor": "Ayto.Sevilla" }, "geometry": { "type": "Point", "coordinates": [ -5.989921398999968, 37.392216276000056 ] } },
{ "type": "Feature", "properties": { "FID": 110, "id_estacio": 183.0, "Direccion": "Alcalde Manuel del Valle", "Aproximaci": "Calle Pino Montano", "Lat_Y": 37.410767, "Lon_X": -5.971348, "CreationDate": "2014\/10\/04 21:21:32", "Creator": "Ayto.Sevilla", "EditDate": "2014\/10\/04 21:21:32", "Editor": "Ayto.Sevilla" }, "geometry": { "type": "Point", "coordinates": [ -5.971347831999935, 37.410766843000033 ] } },
{ "type": "Feature", "properties": { "FID": 111, "id_estacio": 58.0, "Direccion": "Calle Regina", "Aproximaci": "Plaza de la Encarnación", "Lat_Y": 37.39426, "Lon_X": -5.991683, "CreationDate": "2014\/10\/04 21:21:32", "Creator": "Ayto.Sevilla", "EditDate": "2014\/10\/04 21:21:32", "Editor": "Ayto.Sevilla" }, "geometry": { "type": "Point", "coordinates": [ -5.991682994999962, 37.394260311000039 ] } },
{ "type": "Feature", "properties": { "FID": 112, "id_estacio": 59.0, "Direccion": "Avenida de la Palmera", "Aproximaci": "Avenida del Líbano", "Lat_Y": 37.371174, "Lon_X": -5.989169, "CreationDate": "2014\/10\/04 21:21:32", "Creator": "Ayto.Sevilla", "EditDate": "2014\/10\/04 21:21:32", "Editor": "Ayto.Sevilla" }, "geometry": { "type": "Point", "coordinates": [ -5.989168610999968, 37.371173899000041 ] } },
{ "type": "Feature", "properties": { "FID": 113, "id_estacio": 184.0, "Direccion": "Avenida Alcalde Manuel del Valle", "Aproximaci": "Calle San Juan de la Salle", "Lat_Y": 37.408543, "Lon_X": -5.970511, "CreationDate": "2014\/10\/04 21:21:32", "Creator": "Ayto.Sevilla", "EditDate": "2014\/10\/04 21:21:32", "Editor": "Ayto.Sevilla" }, "geometry": { "type": "Point", "coordinates": [ -5.970510601999933, 37.408542730000079 ] } },
{ "type": "Feature", "properties": { "FID": 114, "id_estacio": 60.0, "Direccion": "Plaza de la Concordia", "Aproximaci": "Calle Teniente Borges", "Lat_Y": 37.39389, "Lon_X": -5.996835, "CreationDate": "2014\/10\/04 21:21:32", "Creator": "Ayto.Sevilla", "EditDate": "2014\/10\/04 21:21:32", "Editor": "Ayto.Sevilla" }, "geometry": { "type": "Point", "coordinates": [ -5.99683483299998, 37.393889905000037 ] } },
{ "type": "Feature", "properties": { "FID": 115, "id_estacio": 61.0, "Direccion": "Plaza del Museo", "Aproximaci": "Calle Alfonso XII", "Lat_Y": 37.392838, "Lon_X": -5.999372, "CreationDate": "2014\/10\/04 21:21:32", "Creator": "Ayto.Sevilla", "EditDate": "2014\/10\/04 21:21:32", "Editor": "Ayto.Sevilla" }, "geometry": { "type": "Point", "coordinates": [ -5.999371675999953, 37.39283791400004 ] } },
{ "type": "Feature", "properties": { "FID": 116, "id_estacio": 62.0, "Direccion": "Plaza de Armas", "Aproximaci": "Avenida Torneo (estación de autobuses)", "Lat_Y": 37.391129, "Lon_X": -6.003194, "CreationDate": "2014\/10\/04 21:21:32", "Creator": "Ayto.Sevilla", "EditDate": "2014\/10\/04 21:21:32", "Editor": "Ayto.Sevilla" }, "geometry": { "type": "Point", "coordinates": [ -6.003194006999934, 37.391129290000038 ] } },
{ "type": "Feature", "properties": { "FID": 117, "id_estacio": 63.0, "Direccion": "Calle San Pablo", "Aproximaci": "Calle Bailén", "Lat_Y": 37.390331, "Lon_X": -5.998184, "CreationDate": "2014\/10\/04 21:21:32", "Creator": "Ayto.Sevilla", "EditDate": "2014\/10\/04 21:21:32", "Editor": "Ayto.Sevilla" }, "geometry": { "type": "Point", "coordinates": [ -5.998184102999971, 37.390331347000028 ] } },
{ "type": "Feature", "properties": { "FID": 118, "id_estacio": 185.0, "Direccion": "Avenida Alcalde Manuel del Valle", "Aproximaci": "Calle Alejandro Sawa", "Lat_Y": 37.405136, "Lon_X": -5.968862, "CreationDate": "2014\/10\/04 21:21:32", "Creator": "Ayto.Sevilla", "EditDate": "2014\/10\/04 21:21:32", "Editor": "Ayto.Sevilla" }, "geometry": { "type": "Point", "coordinates": [ -5.968862193999939, 37.405136149000043 ] } },
{ "type": "Feature", "properties": { "FID": 119, "id_estacio": 64.0, "Direccion": "Calle Cuesta del Rosario", "Aproximaci": "Plaza de la Pescadería", "Lat_Y": 37.389816, "Lon_X": -5.991134, "CreationDate": "2014\/10\/04 21:21:32", "Creator": "Ayto.Sevilla", "EditDate": "2014\/10\/04 21:21:32", "Editor": "Ayto.Sevilla" }, "geometry": { "type": "Point", "coordinates": [ -5.991134123999927, 37.389816035000024 ] } },
{ "type": "Feature", "properties": { "FID": 120, "id_estacio": 65.0, "Direccion": "Calle Alhóndiga", "Aproximaci": "Cardenal Cervantes", "Lat_Y": 37.391354, "Lon_X": -5.988126, "CreationDate": "2014\/10\/04 21:21:32", "Creator": "Ayto.Sevilla", "EditDate": "2014\/10\/04 21:21:32", "Editor": "Ayto.Sevilla" }, "geometry": { "type": "Point", "coordinates": [ -5.988125665999974, 37.391354111000055 ] } },
{ "type": "Feature", "properties": { "FID": 121, "id_estacio": 66.0, "Direccion": "Calle Arroyo", "Aproximaci": "Avenida José Laguillo", "Lat_Y": 37.393669, "Lon_X": -5.981848, "CreationDate": "2014\/10\/04 21:21:32", "Creator": "Ayto.Sevilla", "EditDate": "2014\/10\/04 21:21:32", "Editor": "Ayto.Sevilla" }, "geometry": { "type": "Point", "coordinates": [ -5.98184823899993, 37.39366866000006 ] } },
{ "type": "Feature", "properties": { "FID": 122, "id_estacio": 186.0, "Direccion": "Calle Orfebre Dominguez Vázquez", "Aproximaci": "Calle Pino Montano", "Lat_Y": 37.408657, "Lon_X": -5.97309, "CreationDate": "2014\/10\/04 21:21:32", "Creator": "Ayto.Sevilla", "EditDate": "2014\/10\/04 21:21:32", "Editor": "Ayto.Sevilla" }, "geometry": { "type": "Point", "coordinates": [ -5.973089664999975, 37.40865689900005 ] } },
{ "type": "Feature", "properties": { "FID": 123, "id_estacio": 67.0, "Direccion": "Calle Leonardo Da Vinci", "Aproximaci": "Calle Albert Einstein", "Lat_Y": 37.404152, "Lon_X": -6.007303, "CreationDate": "2014\/10\/04 21:21:32", "Creator": "Ayto.Sevilla", "EditDate": "2014\/10\/04 21:21:32", "Editor": "Ayto.Sevilla" }, "geometry": { "type": "Point", "coordinates": [ -6.007302900999946, 37.404152107000073 ] } },
{ "type": "Feature", "properties": { "FID": 124, "id_estacio": 187.0, "Direccion": "Calle Doctor Laffon", "Aproximaci": "Calle Efeso", "Lat_Y": 37.395451, "Lon_X": -5.964004, "CreationDate": "2014\/10\/04 21:21:32", "Creator": "Ayto.Sevilla", "EditDate": "2014\/10\/04 21:21:32", "Editor": "Ayto.Sevilla" }, "geometry": { "type": "Point", "coordinates": [ -5.964004103999969, 37.395450735000054 ] } },
{ "type": "Feature", "properties": { "FID": 125, "id_estacio": 68.0, "Direccion": "Calle Juan Antonio Cabestany", "Aproximaci": "Calle Júpiter", "Lat_Y": 37.390232, "Lon_X": -5.979951, "CreationDate": "2014\/10\/04 21:21:32", "Creator": "Ayto.Sevilla", "EditDate": "2014\/10\/04 21:21:32", "Editor": "Ayto.Sevilla" }, "geometry": { "type": "Point", "coordinates": [ -5.979950996999946, 37.390232139000034 ] } },
{ "type": "Feature", "properties": { "FID": 126, "id_estacio": 188.0, "Direccion": "Avenida Hytasa", "Aproximaci": "Calle Romeral", "Lat_Y": 37.372593, "Lon_X": -5.963385, "CreationDate": "2014\/10\/04 21:21:32", "Creator": "Ayto.Sevilla", "EditDate": "2014\/10\/04 21:21:32", "Editor": "Ayto.Sevilla" }, "geometry": { "type": "Point", "coordinates": [ -5.963385164999977, 37.372593137000024 ] } },
{ "type": "Feature", "properties": { "FID": 127, "id_estacio": 69.0, "Direccion": "Calle Jose Laguillo", "Aproximaci": "Calle Pablo Iglesias", "Lat_Y": 37.392132, "Lon_X": -5.978719, "CreationDate": "2014\/10\/04 21:21:32", "Creator": "Ayto.Sevilla", "EditDate": "2014\/10\/04 21:21:32", "Editor": "Ayto.Sevilla" }, "geometry": { "type": "Point", "coordinates": [ -5.978719406999971, 37.392132059000062 ] } },
{ "type": "Feature", "properties": { "FID": 128, "id_estacio": 70.0, "Direccion": "Estación Renfe Santa Justa", "Aproximaci": "Estación RENFE Santa Justa", "Lat_Y": 37.391315, "Lon_X": -5.97621, "CreationDate": "2014\/10\/04 21:21:32", "Creator": "Ayto.Sevilla", "EditDate": "2014\/10\/04 21:21:32", "Editor": "Ayto.Sevilla" }, "geometry": { "type": "Point", "coordinates": [ -5.976210412999933, 37.391314857000054 ] } },
{ "type": "Feature", "properties": { "FID": 129, "id_estacio": 71.0, "Direccion": "Avenida Kansas City", "Aproximaci": "Hotel Occidental", "Lat_Y": 37.389893, "Lon_X": -5.974438, "CreationDate": "2014\/10\/04 21:21:32", "Creator": "Ayto.Sevilla", "EditDate": "2014\/10\/04 21:21:32", "Editor": "Ayto.Sevilla" }, "geometry": { "type": "Point", "coordinates": [ -5.97443803699997, 37.389893118000032 ] } },
{ "type": "Feature", "properties": { "FID": 130, "id_estacio": 72.0, "Direccion": "Calle Amador de los Rios", "Aproximaci": "Calle Lópe de Vega", "Lat_Y": 37.390732, "Lon_X": -5.982777, "CreationDate": "2014\/10\/04 21:21:32", "Creator": "Ayto.Sevilla", "EditDate": "2014\/10\/04 21:21:32", "Editor": "Ayto.Sevilla" }, "geometry": { "type": "Point", "coordinates": [ -5.982777096999939, 37.390731747000075 ] } },
{ "type": "Feature", "properties": { "FID": 131, "id_estacio": 189.0, "Direccion": "Avenida Hytasa", "Aproximaci": "Nuestra Señora de los Dolores", "Lat_Y": 37.370079, "Lon_X": -5.959466, "CreationDate": "2014\/10\/04 21:21:32", "Creator": "Ayto.Sevilla", "EditDate": "2014\/10\/04 21:21:32", "Editor": "Ayto.Sevilla" }, "geometry": { "type": "Point", "coordinates": [ -5.959465815999977, 37.370078754000076 ] } },
{ "type": "Feature", "properties": { "FID": 132, "id_estacio": 73.0, "Direccion": "Plaza San Agustin", "Aproximaci": "Calle Concepción", "Lat_Y": 37.38953, "Lon_X": -5.984488, "CreationDate": "2014\/10\/04 21:21:32", "Creator": "Ayto.Sevilla", "EditDate": "2014\/10\/04 21:21:32", "Editor": "Ayto.Sevilla" }, "geometry": { "type": "Point", "coordinates": [ -5.984488387999932, 37.389529828000036 ] } },
{ "type": "Feature", "properties": { "FID": 133, "id_estacio": 190.0, "Direccion": "Avenida Hytasa", "Aproximaci": "Calle Herramienta", "Lat_Y": 37.368774, "Lon_X": -5.957272, "CreationDate": "2014\/10\/04 21:21:32", "Creator": "Ayto.Sevilla", "EditDate": "2014\/10\/04 21:21:32", "Editor": "Ayto.Sevilla" }, "geometry": { "type": "Point", "coordinates": [ -5.957272129999978, 37.368773698000041 ] } },
{ "type": "Feature", "properties": { "FID": 134, "id_estacio": 74.0, "Direccion": "Plaza Pilatos", "Aproximaci": "Calle San Esteban", "Lat_Y": 37.389713, "Lon_X": -5.986953, "CreationDate": "2014\/10\/04 21:21:32", "Creator": "Ayto.Sevilla", "EditDate": "2014\/10\/04 21:21:32", "Editor": "Ayto.Sevilla" }, "geometry": { "type": "Point", "coordinates": [ -5.986953364999977, 37.389713257000039 ] } },
{ "type": "Feature", "properties": { "FID": 135, "id_estacio": 191.0, "Direccion": "Glorieta Carlos Cano", "Aproximaci": "Calle Blas Infante", "Lat_Y": 37.37838, "Lon_X": -6.008913, "CreationDate": "2014\/10\/04 21:21:32", "Creator": "Ayto.Sevilla", "EditDate": "2014\/10\/04 21:21:32", "Editor": "Ayto.Sevilla" }, "geometry": { "type": "Point", "coordinates": [ -6.008912681999959, 37.378379752000058 ] } },
{ "type": "Feature", "properties": { "FID": 136, "id_estacio": 75.0, "Direccion": "Plaza San Francisco", "Aproximaci": "Calle Hernando Colón", "Lat_Y": 37.388126, "Lon_X": -5.993839, "CreationDate": "2014\/10\/04 21:21:32", "Creator": "Ayto.Sevilla", "EditDate": "2014\/10\/04 21:21:32", "Editor": "Ayto.Sevilla" }, "geometry": { "type": "Point", "coordinates": [ -5.993838951999976, 37.388125899000045 ] } },
{ "type": "Feature", "properties": { "FID": 137, "id_estacio": 76.0, "Direccion": "Plaza Nueva", "Aproximaci": "Calle Jaen", "Lat_Y": 37.388912, "Lon_X": -5.995605, "CreationDate": "2014\/10\/04 21:21:32", "Creator": "Ayto.Sevilla", "EditDate": "2014\/10\/04 21:21:32", "Editor": "Ayto.Sevilla" }, "geometry": { "type": "Point", "coordinates": [ -5.9956050399999, 37.388911731000064 ] } },
{ "type": "Feature", "properties": { "FID": 138, "id_estacio": 192.0, "Direccion": "Avenida de Alvar Nuñez", "Aproximaci": "Calle Collante", "Lat_Y": 37.378338, "Lon_X": -6.011536, "CreationDate": "2014\/10\/04 21:21:32", "Creator": "Ayto.Sevilla", "EditDate": "2014\/10\/04 21:21:32", "Editor": "Ayto.Sevilla" }, "geometry": { "type": "Point", "coordinates": [ -6.011535762999927, 37.378338350000035 ] } },
{ "type": "Feature", "properties": { "FID": 139, "id_estacio": 77.0, "Direccion": "Plaza Chapina", "Aproximaci": "Hotel Abba Triana", "Lat_Y": 37.389545, "Lon_X": -6.007778, "CreationDate": "2014\/10\/04 21:21:32", "Creator": "Ayto.Sevilla", "EditDate": "2014\/10\/04 21:21:32", "Editor": "Ayto.Sevilla" }, "geometry": { "type": "Point", "coordinates": [ -6.007778109999947, 37.389544816000068 ] } },
{ "type": "Feature", "properties": { "FID": 140, "id_estacio": 193.0, "Direccion": "Avenida de Coria", "Aproximaci": "Calle Coruña", "Lat_Y": 37.38113, "Lon_X": -6.011977, "CreationDate": "2014\/10\/04 21:21:32", "Creator": "Ayto.Sevilla", "EditDate": "2014\/10\/04 21:21:32", "Editor": "Ayto.Sevilla" }, "geometry": { "type": "Point", "coordinates": [ -6.011976835999974, 37.381130130000031 ] } },
{ "type": "Feature", "properties": { "FID": 141, "id_estacio": 78.0, "Direccion": "Calle Alfareria", "Aproximaci": "Ronda de Triana", "Lat_Y": 37.388588, "Lon_X": -6.010287, "CreationDate": "2014\/10\/04 21:21:32", "Creator": "Ayto.Sevilla", "EditDate": "2014\/10\/04 21:21:32", "Editor": "Ayto.Sevilla" }, "geometry": { "type": "Point", "coordinates": [ -6.010287104999975, 37.388587692000044 ] } },
{ "type": "Feature", "properties": { "FID": 142, "id_estacio": 194.0, "Direccion": "Calle Parque de Doñana", "Aproximaci": "Calle Corral de los Olmos", "Lat_Y": 37.418633, "Lon_X": -5.973251, "CreationDate": "2014\/10\/04 21:21:32", "Creator": "Ayto.Sevilla", "EditDate": "2014\/10\/04 21:21:32", "Editor": "Ayto.Sevilla" }, "geometry": { "type": "Point", "coordinates": [ -5.973251361999928, 37.418633123000063 ] } },
{ "type": "Feature", "properties": { "FID": 143, "id_estacio": 79.0, "Direccion": "Plaza de las Mercedarias", "Aproximaci": "Calle Ibarra", "Lat_Y": 37.388386, "Lon_X": -5.98699, "CreationDate": "2014\/10\/04 21:21:32", "Creator": "Ayto.Sevilla", "EditDate": "2014\/10\/04 21:21:32", "Editor": "Ayto.Sevilla" }, "geometry": { "type": "Point", "coordinates": [ -5.986990195999965, 37.38838570300004 ] } },
{ "type": "Feature", "properties": { "FID": 144, "id_estacio": 195.0, "Direccion": "Calle Corral del Agua", "Aproximaci": "Calle Camino de los Toros", "Lat_Y": 37.421741, "Lon_X": -5.971645, "CreationDate": "2014\/10\/04 21:21:32", "Creator": "Ayto.Sevilla", "EditDate": "2014\/10\/04 21:21:32", "Editor": "Ayto.Sevilla" }, "geometry": { "type": "Point", "coordinates": [ -5.971645173999946, 37.421740879000026 ] } },
{ "type": "Feature", "properties": { "FID": 145, "id_estacio": 196.0, "Direccion": "Calle Estrella Canopus", "Aproximaci": "Calle Estrella Betelgeuse", "Lat_Y": 37.424683, "Lon_X": -5.970094, "CreationDate": "2014\/10\/04 21:21:32", "Creator": "Ayto.Sevilla", "EditDate": "2014\/10\/04 21:21:32", "Editor": "Ayto.Sevilla" }, "geometry": { "type": "Point", "coordinates": [ -5.970093783999971, 37.424682997000048 ] } },
{ "type": "Feature", "properties": { "FID": 146, "id_estacio": 80.0, "Direccion": "Calle Luis Montoto", "Aproximaci": "Calle Alberto Duero", "Lat_Y": 37.387627, "Lon_X": -5.981026, "CreationDate": "2014\/10\/04 21:21:32", "Creator": "Ayto.Sevilla", "EditDate": "2014\/10\/04 21:21:32", "Editor": "Ayto.Sevilla" }, "geometry": { "type": "Point", "coordinates": [ -5.98102628099997, 37.387626988000079 ] } },
{ "type": "Feature", "properties": { "FID": 147, "id_estacio": 197.0, "Direccion": "Calle Agricultores", "Aproximaci": "Calle Estrella Betelgeuse", "Lat_Y": 37.423416, "Lon_X": -5.966408, "CreationDate": "2014\/10\/04 21:21:32", "Creator": "Ayto.Sevilla", "EditDate": "2014\/10\/04 21:21:32", "Editor": "Ayto.Sevilla" }, "geometry": { "type": "Point", "coordinates": [ -5.96640799599993, 37.423415989000034 ] } },
{ "type": "Feature", "properties": { "FID": 148, "id_estacio": 81.0, "Direccion": "Calle Luis Montoto", "Aproximaci": "Calle Benitos Mas y Prat", "Lat_Y": 37.387157, "Lon_X": -5.971005, "CreationDate": "2014\/10\/04 21:21:32", "Creator": "Ayto.Sevilla", "EditDate": "2014\/10\/04 21:21:32", "Editor": "Ayto.Sevilla" }, "geometry": { "type": "Point", "coordinates": [ -5.971004674999961, 37.387157337000076 ] } },
{ "type": "Feature", "properties": { "FID": 149, "id_estacio": 198.0, "Direccion": "Calle Mar de Alborán", "Aproximaci": "Calle Camino de los Toros", "Lat_Y": 37.420444, "Lon_X": -5.967942, "CreationDate": "2014\/10\/04 21:21:32", "Creator": "Ayto.Sevilla", "EditDate": "2014\/10\/04 21:21:32", "Editor": "Ayto.Sevilla" }, "geometry": { "type": "Point", "coordinates": [ -5.967942318999974, 37.420443856000077 ] } },
{ "type": "Feature", "properties": { "FID": 150, "id_estacio": 82.0, "Direccion": "Calle Luis Montoto", "Aproximaci": "Calle Maese Farfán", "Lat_Y": 37.387093, "Lon_X": -5.974814, "CreationDate": "2014\/10\/04 21:21:32", "Creator": "Ayto.Sevilla", "EditDate": "2014\/10\/04 21:21:32", "Editor": "Ayto.Sevilla" }, "geometry": { "type": "Point", "coordinates": [ -5.97481443099997, 37.387093099000026 ] } },
{ "type": "Feature", "properties": { "FID": 151, "id_estacio": 199.0, "Direccion": "Calle Mar de Alborán", "Aproximaci": "Corral de los Olmos", "Lat_Y": 37.417839, "Lon_X": -5.969311, "CreationDate": "2014\/10\/04 21:21:32", "Creator": "Ayto.Sevilla", "EditDate": "2014\/10\/04 21:21:32", "Editor": "Ayto.Sevilla" }, "geometry": { "type": "Point", "coordinates": [ -5.969311350999931, 37.417839041000036 ] } },
{ "type": "Feature", "properties": { "FID": 152, "id_estacio": 83.0, "Direccion": "Avenida La Buhaira", "Aproximaci": "Avenida Luis Montoto", "Lat_Y": 37.386997, "Lon_X": -5.978032, "CreationDate": "2014\/10\/04 21:21:32", "Creator": "Ayto.Sevilla", "EditDate": "2014\/10\/04 21:21:32", "Editor": "Ayto.Sevilla" }, "geometry": { "type": "Point", "coordinates": [ -5.978032195999958, 37.386996741000075 ] } },
{ "type": "Feature", "properties": { "FID": 153, "id_estacio": 200.0, "Direccion": "Calle Camino de Los Toros", "Aproximaci": "Calle Mediterráneo", "Lat_Y": 37.418919, "Lon_X": -5.963193, "CreationDate": "2014\/10\/04 21:21:32", "Creator": "Ayto.Sevilla", "EditDate": "2014\/10\/04 21:21:32", "Editor": "Ayto.Sevilla" }, "geometry": { "type": "Point", "coordinates": [ -5.963192925999977, 37.418919219000031 ] } },
{ "type": "Feature", "properties": { "FID": 154, "id_estacio": 84.0, "Direccion": "Calle José María Moreno Galván", "Aproximaci": "Calle Juan Antonio Cabestany", "Lat_Y": 37.387375, "Lon_X": -5.983063, "CreationDate": "2014\/10\/04 21:21:32", "Creator": "Ayto.Sevilla", "EditDate": "2014\/10\/04 21:21:32", "Editor": "Ayto.Sevilla" }, "geometry": { "type": "Point", "coordinates": [ -5.983062761999975, 37.387375032000079 ] } },
{ "type": "Feature", "properties": { "FID": 155, "id_estacio": 201.0, "Direccion": "Calle Pino Montano", "Aproximaci": "Calle Estafeta", "Lat_Y": 37.415722, "Lon_X": -5.967817, "CreationDate": "2014\/10\/04 21:21:32", "Creator": "Ayto.Sevilla", "EditDate": "2014\/10\/04 21:21:32", "Editor": "Ayto.Sevilla" }, "geometry": { "type": "Point", "coordinates": [ -5.967816554999956, 37.415722161000076 ] } },
{ "type": "Feature", "properties": { "FID": 156, "id_estacio": 85.0, "Direccion": "Paseo Catalina Ribera", "Aproximaci": "Frente a la Diputación Provincial", "Lat_Y": 37.385303, "Lon_X": -5.986732, "CreationDate": "2014\/10\/04 21:21:32", "Creator": "Ayto.Sevilla", "EditDate": "2014\/10\/04 21:21:32", "Editor": "Ayto.Sevilla" }, "geometry": { "type": "Point", "coordinates": [ -5.986732378999932, 37.38530297300008 ] } },
{ "type": "Feature", "properties": { "FID": 157, "id_estacio": 86.0, "Direccion": "Camino de los Descubrimientos", "Aproximaci": "Pasarela de la Cartuja", "Lat_Y": 37.39706, "Lon_X": -6.006276, "CreationDate": "2014\/10\/04 21:21:32", "Creator": "Ayto.Sevilla", "EditDate": "2014\/10\/04 21:21:32", "Editor": "Ayto.Sevilla" }, "geometry": { "type": "Point", "coordinates": [ -6.006276126999978, 37.397060062000037 ] } },
{ "type": "Feature", "properties": { "FID": 158, "id_estacio": 87.0, "Direccion": "Plaza Nueva", "Aproximaci": "Calle Tetuan", "Lat_Y": 37.388927, "Lon_X": -5.995421, "CreationDate": "2014\/10\/04 21:21:32", "Creator": "Ayto.Sevilla", "EditDate": "2014\/10\/04 21:21:32", "Editor": "Ayto.Sevilla" }, "geometry": { "type": "Point", "coordinates": [ -5.99542088499993, 37.388926720000029 ] } },
{ "type": "Feature", "properties": { "FID": 159, "id_estacio": 202.0, "Direccion": "Avenida Mujer Trabajadora", "Aproximaci": "Avenida Miraflores", "Lat_Y": 37.411491, "Lon_X": -5.966746, "CreationDate": "2014\/10\/04 21:21:32", "Creator": "Ayto.Sevilla", "EditDate": "2014\/10\/04 21:21:32", "Editor": "Ayto.Sevilla" }, "geometry": { "type": "Point", "coordinates": [ -5.966745762999949, 37.411491075000072 ] } },
{ "type": "Feature", "properties": { "FID": 160, "id_estacio": 203.0, "Direccion": "Calle Tesalónica", "Aproximaci": "Calle Mazzantini", "Lat_Y": 37.396206, "Lon_X": -5.958765, "CreationDate": "2014\/10\/04 21:21:32", "Creator": "Ayto.Sevilla", "EditDate": "2014\/10\/04 21:21:32", "Editor": "Ayto.Sevilla" }, "geometry": { "type": "Point", "coordinates": [ -5.958765129999961, 37.396205803000043 ] } },
{ "type": "Feature", "properties": { "FID": 161, "id_estacio": 204.0, "Direccion": "Calle Doctor Laffon", "Aproximaci": "Calle Tesalonica", "Lat_Y": 37.397659, "Lon_X": -5.961647, "CreationDate": "2014\/10\/04 21:21:32", "Creator": "Ayto.Sevilla", "EditDate": "2014\/10\/04 21:21:32", "Editor": "Ayto.Sevilla" }, "geometry": { "type": "Point", "coordinates": [ -5.961646924999968, 37.397658823000029 ] } },
{ "type": "Feature", "properties": { "FID": 162, "id_estacio": 88.0, "Direccion": "Calle Americo Vespucio", "Aproximaci": "Calle Hermanos d'Eluyar", "Lat_Y": 37.409214, "Lon_X": -6.006432, "CreationDate": "2014\/10\/04 21:21:32", "Creator": "Ayto.Sevilla", "EditDate": "2014\/10\/04 21:21:32", "Editor": "Ayto.Sevilla" }, "geometry": { "type": "Point", "coordinates": [ -6.006432433999976, 37.409214181000038 ] } },
{ "type": "Feature", "properties": { "FID": 163, "id_estacio": 205.0, "Direccion": "Avenida Kansas City", "Aproximaci": "Plaza el Tato", "Lat_Y": 37.400173, "Lon_X": -5.961821, "CreationDate": "2014\/10\/04 21:21:32", "Creator": "Ayto.Sevilla", "EditDate": "2014\/10\/04 21:21:32", "Editor": "Ayto.Sevilla" }, "geometry": { "type": "Point", "coordinates": [ -5.961821197999939, 37.400172995000048 ] } },
{ "type": "Feature", "properties": { "FID": 164, "id_estacio": 89.0, "Direccion": "Calle Adriano", "Aproximaci": "Calle Antonia Díaz", "Lat_Y": 37.386475, "Lon_X": -5.997763, "CreationDate": "2014\/10\/04 21:21:32", "Creator": "Ayto.Sevilla", "EditDate": "2014\/10\/04 21:21:32", "Editor": "Ayto.Sevilla" }, "geometry": { "type": "Point", "coordinates": [ -5.997762792999936, 37.386474982000038 ] } },
{ "type": "Feature", "properties": { "FID": 165, "id_estacio": 206.0, "Direccion": "Avenida Kansas City", "Aproximaci": "Calle Macedonia", "Lat_Y": 37.402988, "Lon_X": -5.9582, "CreationDate": "2014\/10\/04 21:21:32", "Creator": "Ayto.Sevilla", "EditDate": "2014\/10\/04 21:21:32", "Editor": "Ayto.Sevilla" }, "geometry": { "type": "Point", "coordinates": [ -5.958200088999945, 37.402988225000058 ] } },
{ "type": "Feature", "properties": { "FID": 166, "id_estacio": 90.0, "Direccion": "Calle Roma", "Aproximaci": "Calle Palos de la Frontera", "Lat_Y": 37.38121, "Lon_X": -5.99354, "CreationDate": "2014\/10\/04 21:21:32", "Creator": "Ayto.Sevilla", "EditDate": "2014\/10\/04 21:21:32", "Editor": "Ayto.Sevilla" }, "geometry": { "type": "Point", "coordinates": [ -5.993539812999927, 37.381210077000048 ] } },
{ "type": "Feature", "properties": { "FID": 167, "id_estacio": 207.0, "Direccion": "Calle Ifni", "Aproximaci": "Avenida de Holanda", "Lat_Y": 37.355045, "Lon_X": -5.982391, "CreationDate": "2014\/10\/04 21:21:32", "Creator": "Ayto.Sevilla", "EditDate": "2014\/10\/04 21:21:32", "Editor": "Ayto.Sevilla" }, "geometry": { "type": "Point", "coordinates": [ -5.982390821999957, 37.355044957000075 ] } },
{ "type": "Feature", "properties": { "FID": 168, "id_estacio": 91.0, "Direccion": "Calle Procurador", "Aproximaci": "Clara de Jesús Monteto", "Lat_Y": 37.386932, "Lon_X": -6.007643, "CreationDate": "2014\/10\/04 21:21:32", "Creator": "Ayto.Sevilla", "EditDate": "2014\/10\/04 21:21:32", "Editor": "Ayto.Sevilla" }, "geometry": { "type": "Point", "coordinates": [ -6.007643362999943, 37.386931789000073 ] } },
{ "type": "Feature", "properties": { "FID": 169, "id_estacio": 208.0, "Direccion": "Avenida de Grecia", "Aproximaci": "Avenida de Italia", "Lat_Y": 37.350651, "Lon_X": -5.984197, "CreationDate": "2014\/10\/04 21:21:32", "Creator": "Ayto.Sevilla", "EditDate": "2014\/10\/04 21:21:32", "Editor": "Ayto.Sevilla" }, "geometry": { "type": "Point", "coordinates": [ -5.98419733399993, 37.350651200000073 ] } },
{ "type": "Feature", "properties": { "FID": 170, "id_estacio": 92.0, "Direccion": "Ronda de Triana", "Aproximaci": "Calle de Manuel Arellano", "Lat_Y": 37.385529, "Lon_X": -6.011166, "CreationDate": "2014\/10\/04 21:21:32", "Creator": "Ayto.Sevilla", "EditDate": "2014\/10\/04 21:21:32", "Editor": "Ayto.Sevilla" }, "geometry": { "type": "Point", "coordinates": [ -6.011165656999935, 37.38552923900005 ] } },
{ "type": "Feature", "properties": { "FID": 171, "id_estacio": 93.0, "Direccion": "Ronda de Triana", "Aproximaci": "Calle San Vicente de Paul", "Lat_Y": 37.383072, "Lon_X": -6.010889, "CreationDate": "2014\/10\/04 21:21:32", "Creator": "Ayto.Sevilla", "EditDate": "2014\/10\/04 21:21:32", "Editor": "Ayto.Sevilla" }, "geometry": { "type": "Point", "coordinates": [ -6.010888975999933, 37.383071680000057 ] } },
{ "type": "Feature", "properties": { "FID": 172, "id_estacio": 209.0, "Direccion": "Avenida Alemania", "Aproximaci": "Glorieta Chequia", "Lat_Y": 37.345284, "Lon_X": -5.982614, "CreationDate": "2014\/10\/04 21:21:32", "Creator": "Ayto.Sevilla", "EditDate": "2014\/10\/04 21:21:32", "Editor": "Ayto.Sevilla" }, "geometry": { "type": "Point", "coordinates": [ -5.982613603999937, 37.345283799000072 ] } },
{ "type": "Feature", "properties": { "FID": 173, "id_estacio": 94.0, "Direccion": "Plaza del Zurraque", "Aproximaci": "Calle Doc. Jeronimo Pou", "Lat_Y": 37.383343, "Lon_X": -6.00821, "CreationDate": "2014\/10\/04 21:21:32", "Creator": "Ayto.Sevilla", "EditDate": "2014\/10\/04 21:21:32", "Editor": "Ayto.Sevilla" }, "geometry": { "type": "Point", "coordinates": [ -6.008210199999951, 37.383342922000054 ] } },
{ "type": "Feature", "properties": { "FID": 174, "id_estacio": 95.0, "Direccion": "Calle Américo Vespucio", "Aproximaci": "Calle Juan Bautista Muñoz", "Lat_Y": 37.412148, "Lon_X": -6.006387, "CreationDate": "2014\/10\/04 21:21:32", "Creator": "Ayto.Sevilla", "EditDate": "2014\/10\/04 21:21:32", "Editor": "Ayto.Sevilla" }, "geometry": { "type": "Point", "coordinates": [ -6.006386619999944, 37.412148229000024 ] } },
{ "type": "Feature", "properties": { "FID": 175, "id_estacio": 96.0, "Direccion": "Calle Betis", "Aproximaci": "Calle Juan de Lugo", "Lat_Y": 37.383766, "Lon_X": -6.000161, "CreationDate": "2014\/10\/04 21:21:32", "Creator": "Ayto.Sevilla", "EditDate": "2014\/10\/04 21:21:32", "Editor": "Ayto.Sevilla" }, "geometry": { "type": "Point", "coordinates": [ -6.000161294999941, 37.383766200000025 ] } },
{ "type": "Feature", "properties": { "FID": 176, "id_estacio": 210.0, "Direccion": "Paseo de Europa", "Aproximaci": "Avenida de Francia", "Lat_Y": 37.348045, "Lon_X": -5.980027, "CreationDate": "2014\/10\/04 21:21:32", "Creator": "Ayto.Sevilla", "EditDate": "2014\/10\/04 21:21:32", "Editor": "Ayto.Sevilla" }, "geometry": { "type": "Point", "coordinates": [ -5.980027353999958, 37.34804467400005 ] } },
{ "type": "Feature", "properties": { "FID": 177, "id_estacio": 97.0, "Direccion": "Paseo de Cristóbal Colón", "Aproximaci": "Torre del Oro", "Lat_Y": 37.381561, "Lon_X": -5.995531, "CreationDate": "2014\/10\/04 21:21:32", "Creator": "Ayto.Sevilla", "EditDate": "2014\/10\/04 21:21:32", "Editor": "Ayto.Sevilla" }, "geometry": { "type": "Point", "coordinates": [ -5.995531377999953, 37.381561273000045 ] } },
{ "type": "Feature", "properties": { "FID": 178, "id_estacio": 211.0, "Direccion": "Avenida de Alemania", "Aproximaci": "Glorieta de Letonia", "Lat_Y": 37.346104, "Lon_X": -5.97609, "CreationDate": "2014\/10\/04 21:21:32", "Creator": "Ayto.Sevilla", "EditDate": "2014\/10\/04 21:21:32", "Editor": "Ayto.Sevilla" }, "geometry": { "type": "Point", "coordinates": [ -5.976090037999938, 37.346103645000028 ] } },
{ "type": "Feature", "properties": { "FID": 179, "id_estacio": 98.0, "Direccion": "Avenida de Roma", "Aproximaci": "Puerta de Jerez", "Lat_Y": 37.381989, "Lon_X": -5.993251, "CreationDate": "2014\/10\/04 21:21:32", "Creator": "Ayto.Sevilla", "EditDate": "2014\/10\/04 21:21:32", "Editor": "Ayto.Sevilla" }, "geometry": { "type": "Point", "coordinates": [ -5.993250554999975, 37.381988844000034 ] } },
{ "type": "Feature", "properties": { "FID": 180, "id_estacio": 99.0, "Direccion": "Calle Américo Vespucio", "Aproximaci": "Gerencia de Urbanismo de Sevilla", "Lat_Y": 37.397377, "Lon_X": -6.010554, "CreationDate": "2014\/10\/04 21:21:32", "Creator": "Ayto.Sevilla", "EditDate": "2014\/10\/04 21:21:32", "Editor": "Ayto.Sevilla" }, "geometry": { "type": "Point", "coordinates": [ -6.010553903999948, 37.397376928000028 ] } },
{ "type": "Feature", "properties": { "FID": 181, "id_estacio": 212.0, "Direccion": "Avenida Reino Unido", "Aproximaci": "Avenida de Italia", "Lat_Y": 37.351608, "Lon_X": -5.977771, "CreationDate": "2014\/10\/04 21:21:32", "Creator": "Ayto.Sevilla", "EditDate": "2014\/10\/04 21:21:32", "Editor": "Ayto.Sevilla" }, "geometry": { "type": "Point", "coordinates": [ -5.977770785999951, 37.351608094000028 ] } },
{ "type": "Feature", "properties": { "FID": 182, "id_estacio": 100.0, "Direccion": "Paseo Catalina Ribera", "Aproximaci": "Calle San Fernando", "Lat_Y": 37.381561, "Lon_X": -5.989214, "CreationDate": "2014\/10\/04 21:21:32", "Creator": "Ayto.Sevilla", "EditDate": "2014\/10\/04 21:21:32", "Editor": "Ayto.Sevilla" }, "geometry": { "type": "Point", "coordinates": [ -5.989214424999943, 37.381561273000045 ] } },
{ "type": "Feature", "properties": { "FID": 183, "id_estacio": 101.0, "Direccion": "Prado de San Sebastian", "Aproximaci": "Estación de autobuses", "Lat_Y": 37.381298, "Lon_X": -5.986873, "CreationDate": "2014\/10\/04 21:21:32", "Creator": "Ayto.Sevilla", "EditDate": "2014\/10\/04 21:21:32", "Editor": "Ayto.Sevilla" }, "geometry": { "type": "Point", "coordinates": [ -5.986873414999934, 37.381297876000076 ] } },
{ "type": "Feature", "properties": { "FID": 184, "id_estacio": 213.0, "Direccion": "Avenida de Andalucia", "Aproximaci": "Cochera de TUSSAM", "Lat_Y": 37.387173, "Lon_X": -5.948397, "CreationDate": "2014\/10\/04 21:21:32", "Creator": "Ayto.Sevilla", "EditDate": "2014\/10\/04 21:21:32", "Editor": "Ayto.Sevilla" }, "geometry": { "type": "Point", "coordinates": [ -5.948396774999935, 37.38717304000005 ] } },
{ "type": "Feature", "properties": { "FID": 185, "id_estacio": 102.0, "Direccion": "Calle Juan de Mata Carriazo", "Aproximaci": "Antigua estación San Bernardo", "Lat_Y": 37.38274, "Lon_X": -5.983716, "CreationDate": "2014\/10\/04 21:21:32", "Creator": "Ayto.Sevilla", "EditDate": "2014\/10\/04 21:21:32", "Editor": "Ayto.Sevilla" }, "geometry": { "type": "Point", "coordinates": [ -5.983715836999977, 37.382739764000064 ] } },
{ "type": "Feature", "properties": { "FID": 186, "id_estacio": 103.0, "Direccion": "Avenida Eduardo Dato", "Aproximaci": "Calle San Bernardo", "Lat_Y": 37.384309, "Lon_X": -5.98252, "CreationDate": "2014\/10\/04 21:21:32", "Creator": "Ayto.Sevilla", "EditDate": "2014\/10\/04 21:21:32", "Editor": "Ayto.Sevilla" }, "geometry": { "type": "Point", "coordinates": [ -5.982520178999948, 37.384308678000025 ] } },
{ "type": "Feature", "properties": { "FID": 187, "id_estacio": 104.0, "Direccion": "Avenida Eduardo Dato", "Aproximaci": "Calle Fuenteovejuna", "Lat_Y": 37.384171, "Lon_X": -5.979757, "CreationDate": "2014\/10\/04 21:21:32", "Creator": "Ayto.Sevilla", "EditDate": "2014\/10\/04 21:21:32", "Editor": "Ayto.Sevilla" }, "geometry": { "type": "Point", "coordinates": [ -5.979756960999964, 37.384170918000052 ] } },
{ "type": "Feature", "properties": { "FID": 188, "id_estacio": 214.0, "Direccion": "Avenida de Andalucia", "Aproximaci": "Entrada TUSSAM", "Lat_Y": 37.38718, "Lon_X": -5.948491, "CreationDate": "2014\/10\/04 21:21:32", "Creator": "Ayto.Sevilla", "EditDate": "2014\/10\/04 21:21:32", "Editor": "Ayto.Sevilla" }, "geometry": { "type": "Point", "coordinates": [ -5.948491097999977, 37.387180177000062 ] } },
{ "type": "Feature", "properties": { "FID": 189, "id_estacio": 105.0, "Direccion": "Calle Francisco Murillo", "Aproximaci": "Calle Manuel Siurot", "Lat_Y": 37.358913, "Lon_X": -5.980601, "CreationDate": "2014\/10\/04 21:21:32", "Creator": "Ayto.Sevilla", "EditDate": "2014\/10\/04 21:21:32", "Editor": "Ayto.Sevilla" }, "geometry": { "type": "Point", "coordinates": [ -5.98060137799996, 37.358912934000045 ] } },
{ "type": "Feature", "properties": { "FID": 190, "id_estacio": 106.0, "Direccion": "Avenida Eduardo Dato", "Aproximaci": "Calle Oscar Carvallo", "Lat_Y": 37.383743, "Lon_X": -5.977473, "CreationDate": "2014\/10\/04 21:21:32", "Creator": "Ayto.Sevilla", "EditDate": "2014\/10\/04 21:21:32", "Editor": "Ayto.Sevilla" }, "geometry": { "type": "Point", "coordinates": [ -5.977473443999941, 37.383742645000041 ] } },
{ "type": "Feature", "properties": { "FID": 191, "id_estacio": 107.0, "Direccion": "Calle Luis Morales", "Aproximaci": "Nervión Plaza", "Lat_Y": 37.384254, "Lon_X": -5.972663, "CreationDate": "2014\/10\/04 21:21:32", "Creator": "Ayto.Sevilla", "EditDate": "2014\/10\/04 21:21:32", "Editor": "Ayto.Sevilla" }, "geometry": { "type": "Point", "coordinates": [ -5.972662965999973, 37.384253717000036 ] } },
{ "type": "Feature", "properties": { "FID": 192, "id_estacio": 108.0, "Direccion": "Avenida Eduardo Dato", "Aproximaci": "Avenida de San Francisco Javier", "Lat_Y": 37.382832, "Lon_X": -5.973557, "CreationDate": "2014\/10\/04 21:21:32", "Creator": "Ayto.Sevilla", "EditDate": "2014\/10\/04 21:21:32", "Editor": "Ayto.Sevilla" }, "geometry": { "type": "Point", "coordinates": [ -5.973556788999929, 37.382831844000066 ] } },
{ "type": "Feature", "properties": { "FID": 193, "id_estacio": 215.0, "Direccion": "Calle Zorzal", "Aproximaci": "Avenida de Andalucia", "Lat_Y": 37.386658, "Lon_X": -5.954, "CreationDate": "2014\/10\/04 21:21:32", "Creator": "Ayto.Sevilla", "EditDate": "2014\/10\/04 21:21:32", "Editor": "Ayto.Sevilla" }, "geometry": { "type": "Point", "coordinates": [ -5.953999566999926, 37.386657705000061 ] } },
{ "type": "Feature", "properties": { "FID": 194, "id_estacio": 109.0, "Direccion": "Avenida San Francisco Javier", "Aproximaci": "Calle Camilo José Cela", "Lat_Y": 37.379898, "Lon_X": -5.974588, "CreationDate": "2014\/10\/04 21:21:32", "Creator": "Ayto.Sevilla", "EditDate": "2014\/10\/04 21:21:32", "Editor": "Ayto.Sevilla" }, "geometry": { "type": "Point", "coordinates": [ -5.97458805499997, 37.379898076000075 ] } },
{ "type": "Feature", "properties": { "FID": 195, "id_estacio": 216.0, "Direccion": "Calle Antioquia", "Aproximaci": "Avenida de Pedro Romero", "Lat_Y": 37.399948, "Lon_X": -5.956273, "CreationDate": "2014\/10\/04 21:21:32", "Creator": "Ayto.Sevilla", "EditDate": "2014\/10\/04 21:21:32", "Editor": "Ayto.Sevilla" }, "geometry": { "type": "Point", "coordinates": [ -5.956273202999967, 37.39994820000004 ] } },
{ "type": "Feature", "properties": { "FID": 196, "id_estacio": 110.0, "Direccion": "Plaza Maria Mercedes Borbón", "Aproximaci": "Calle Virgen de la Sierra", "Lat_Y": 37.380184, "Lon_X": -5.982969, "CreationDate": "2014\/10\/04 21:21:32", "Creator": "Ayto.Sevilla", "EditDate": "2014\/10\/04 21:21:32", "Editor": "Ayto.Sevilla" }, "geometry": { "type": "Point", "coordinates": [ -5.982969336999929, 37.380184320000069 ] } },
{ "type": "Feature", "properties": { "FID": 197, "id_estacio": 111.0, "Direccion": "Plaza Farmacéutico Murillo Herrera", "Aproximaci": "Calle Pages de Corro", "Lat_Y": 37.381264, "Lon_X": -6.001008, "CreationDate": "2014\/10\/04 21:21:32", "Creator": "Ayto.Sevilla", "EditDate": "2014\/10\/04 21:21:32", "Editor": "Ayto.Sevilla" }, "geometry": { "type": "Point", "coordinates": [ -6.001008405999926, 37.381264327000054 ] } },
{ "type": "Feature", "properties": { "FID": 198, "id_estacio": 112.0, "Direccion": "Avenida J.Mª Martínez Sánchez Arjona", "Aproximaci": "Plaza Amadeo Janone", "Lat_Y": 37.380127, "Lon_X": -6.004353, "CreationDate": "2014\/10\/04 21:21:32", "Creator": "Ayto.Sevilla", "EditDate": "2014\/10\/04 21:21:32", "Editor": "Ayto.Sevilla" }, "geometry": { "type": "Point", "coordinates": [ -6.004352833999974, 37.380127214000026 ] } },
{ "type": "Feature", "properties": { "FID": 199, "id_estacio": 217.0, "Direccion": "Calle de la A.D.A.", "Aproximaci": "Calle Jerusalén", "Lat_Y": 37.393906, "Lon_X": -5.962387, "CreationDate": "2014\/10\/04 21:21:32", "Creator": "Ayto.Sevilla", "EditDate": "2014\/10\/04 21:21:32", "Editor": "Ayto.Sevilla" }, "geometry": { "type": "Point", "coordinates": [ -5.962387136999951, 37.393906320000042 ] } },
{ "type": "Feature", "properties": { "FID": 200, "id_estacio": 113.0, "Direccion": "Plaza San Martín de Porres", "Aproximaci": "Avenida Alvar Núñez", "Lat_Y": 37.380783, "Lon_X": -6.009214, "CreationDate": "2014\/10\/04 21:21:32", "Creator": "Ayto.Sevilla", "EditDate": "2014\/10\/04 21:21:32", "Editor": "Ayto.Sevilla" }, "geometry": { "type": "Point", "coordinates": [ -6.009213617999933, 37.380783215000065 ] } },
{ "type": "Feature", "properties": { "FID": 201, "id_estacio": 114.0, "Direccion": "Glorieta Plus Ultra", "Aproximaci": "Estadio Benito Villamarín", "Lat_Y": 37.356327, "Lon_X": -5.979288, "CreationDate": "2014\/10\/04 21:21:32", "Creator": "Ayto.Sevilla", "EditDate": "2014\/10\/04 21:21:32", "Editor": "Ayto.Sevilla" }, "geometry": { "type": "Point", "coordinates": [ -5.979288040999961, 37.356326688000024 ] } },
{ "type": "Feature", "properties": { "FID": 202, "id_estacio": 218.0, "Direccion": "Plaza del Altozano", "Aproximaci": "Calle San Jorge", "Lat_Y": 37.385116, "Lon_X": -6.003605, "CreationDate": "2014\/10\/04 21:21:32", "Creator": "Ayto.Sevilla", "EditDate": "2014\/10\/04 21:21:32", "Editor": "Ayto.Sevilla" }, "geometry": { "type": "Point", "coordinates": [ -6.00360543499994, 37.385115964000079 ] } },
{ "type": "Feature", "properties": { "FID": 203, "id_estacio": 115.0, "Direccion": "Calle López de Gomara", "Aproximaci": "Frente Instituto Adolfo Becquer", "Lat_Y": 37.377857, "Lon_X": -6.007161, "CreationDate": "2014\/10\/04 21:21:32", "Creator": "Ayto.Sevilla", "EditDate": "2014\/10\/04 21:21:32", "Editor": "Ayto.Sevilla" }, "geometry": { "type": "Point", "coordinates": [ -6.007160966999948, 37.377857219000077 ] } },
{ "type": "Feature", "properties": { "FID": 204, "id_estacio": 219.0, "Direccion": "Calle de la A.D.A.", "Aproximaci": "Calle de Tesalónica", "Lat_Y": 37.390614, "Lon_X": -5.959053, "CreationDate": "2014\/10\/04 21:21:32", "Creator": "Ayto.Sevilla", "EditDate": "2014\/10\/04 21:21:32", "Editor": "Ayto.Sevilla" }, "geometry": { "type": "Point", "coordinates": [ -5.959052590999931, 37.390613983000037 ] } },
{ "type": "Feature", "properties": { "FID": 205, "id_estacio": 116.0, "Direccion": "Calle Manuel Siurot", "Aproximaci": "Hospital Universitario Virgen del Rocio", "Lat_Y": 37.361404, "Lon_X": -5.981547, "CreationDate": "2014\/10\/04 21:21:32", "Creator": "Ayto.Sevilla", "EditDate": "2014\/10\/04 21:21:32", "Editor": "Ayto.Sevilla" }, "geometry": { "type": "Point", "coordinates": [ -5.981547303999946, 37.36140412900005 ] } },
{ "type": "Feature", "properties": { "FID": 206, "id_estacio": 220.0, "Direccion": "Avenida Alcalde Luis Uruñuela", "Aproximaci": "Centro Comercial Zona Este", "Lat_Y": 37.405083, "Lon_X": -5.935817, "CreationDate": "2014\/10\/04 21:21:32", "Creator": "Ayto.Sevilla", "EditDate": "2014\/10\/04 21:21:32", "Editor": "Ayto.Sevilla" }, "geometry": { "type": "Point", "coordinates": [ -5.935816766999949, 37.405083343000058 ] } },
{ "type": "Feature", "properties": { "FID": 207, "id_estacio": 117.0, "Direccion": "Avenida J.Mª Martínez Sánchez Arjona", "Aproximaci": "Avenida Republica Argentina", "Lat_Y": 37.377785, "Lon_X": -6.002577, "CreationDate": "2014\/10\/04 21:21:32", "Creator": "Ayto.Sevilla", "EditDate": "2014\/10\/04 21:21:32", "Editor": "Ayto.Sevilla" }, "geometry": { "type": "Point", "coordinates": [ -6.002576863999934, 37.377785121000045 ] } },
{ "type": "Feature", "properties": { "FID": 208, "id_estacio": 118.0, "Direccion": "Plaza de Cuba", "Aproximaci": "Puente de San Telmo", "Lat_Y": 37.380146, "Lon_X": -5.997122, "CreationDate": "2014\/10\/04 21:21:32", "Creator": "Ayto.Sevilla", "EditDate": "2014\/10\/04 21:21:32", "Editor": "Ayto.Sevilla" }, "geometry": { "type": "Point", "coordinates": [ -5.997122293999951, 37.380145773000038 ] } },
{ "type": "Feature", "properties": { "FID": 209, "id_estacio": 221.0, "Direccion": "Avenida Alcalde Luis Uruñuela", "Aproximaci": "Hotel Sevilla Congresos", "Lat_Y": 37.405602, "Lon_X": -5.930538, "CreationDate": "2014\/10\/04 21:21:32", "Creator": "Ayto.Sevilla", "EditDate": "2014\/10\/04 21:21:32", "Editor": "Ayto.Sevilla" }, "geometry": { "type": "Point", "coordinates": [ -5.930538266999974, 37.405602119000037 ] } },
{ "type": "Feature", "properties": { "FID": 210, "id_estacio": 119.0, "Direccion": "Avenida de Chile", "Aproximaci": "Costurero de la Reina", "Lat_Y": 37.377426, "Lon_X": -5.991934, "CreationDate": "2014\/10\/04 21:21:32", "Creator": "Ayto.Sevilla", "EditDate": "2014\/10\/04 21:21:32", "Editor": "Ayto.Sevilla" }, "geometry": { "type": "Point", "coordinates": [ -5.991933624999945, 37.377426055000058 ] } },
{ "type": "Feature", "properties": { "FID": 211, "id_estacio": 222.0, "Direccion": "Avenida Alcalde Luis Uruñuela", "Aproximaci": "Palacio de los Congresos", "Lat_Y": 37.404102, "Lon_X": -5.934514, "CreationDate": "2014\/10\/04 21:21:32", "Creator": "Ayto.Sevilla", "EditDate": "2014\/10\/04 21:21:32", "Editor": "Ayto.Sevilla" }, "geometry": { "type": "Point", "coordinates": [ -5.934514209999975, 37.404102156000079 ] } },
{ "type": "Feature", "properties": { "FID": 212, "id_estacio": 120.0, "Direccion": "Glorieta San Diego", "Aproximaci": "Calle Palos de la Frontera", "Lat_Y": 37.378845, "Lon_X": -5.989949, "CreationDate": "2014\/10\/04 21:21:32", "Creator": "Ayto.Sevilla", "EditDate": "2014\/10\/04 21:21:32", "Editor": "Ayto.Sevilla" }, "geometry": { "type": "Point", "coordinates": [ -5.98994924699997, 37.378845175000038 ] } },
{ "type": "Feature", "properties": { "FID": 213, "id_estacio": 223.0, "Direccion": "Calle Gema", "Aproximaci": "Avenida de las Ciencias", "Lat_Y": 37.400715, "Lon_X": -5.926361, "CreationDate": "2014\/10\/04 21:21:32", "Creator": "Ayto.Sevilla", "EditDate": "2014\/10\/04 21:21:32", "Editor": "Ayto.Sevilla" }, "geometry": { "type": "Point", "coordinates": [ -5.926361100999941, 37.400715354000056 ] } },
{ "type": "Feature", "properties": { "FID": 214, "id_estacio": 121.0, "Direccion": "Calle Doctor Pedro de Castro", "Aproximaci": "Calle Doc. Gabriel Sánchez", "Lat_Y": 37.377132, "Lon_X": -5.981853, "CreationDate": "2014\/10\/04 21:21:32", "Creator": "Ayto.Sevilla", "EditDate": "2014\/10\/04 21:21:32", "Editor": "Ayto.Sevilla" }, "geometry": { "type": "Point", "coordinates": [ -5.981852730999947, 37.377131949000045 ] } },
{ "type": "Feature", "properties": { "FID": 215, "id_estacio": 224.0, "Direccion": "Avenida de las Ciencias", "Aproximaci": "Calle de Ulises", "Lat_Y": 37.397022, "Lon_X": -5.92377, "CreationDate": "2014\/10\/04 21:21:32", "Creator": "Ayto.Sevilla", "EditDate": "2014\/10\/04 21:21:32", "Editor": "Ayto.Sevilla" }, "geometry": { "type": "Point", "coordinates": [ -5.923770359999935, 37.397022238000034 ] } },
{ "type": "Feature", "properties": { "FID": 216, "id_estacio": 122.0, "Direccion": "Calle Enramadilla", "Aproximaci": "Calle Balbino Marrón", "Lat_Y": 37.378597, "Lon_X": -5.978425, "CreationDate": "2014\/10\/04 21:21:32", "Creator": "Ayto.Sevilla", "EditDate": "2014\/10\/04 21:21:32", "Editor": "Ayto.Sevilla" }, "geometry": { "type": "Point", "coordinates": [ -5.978424759999939, 37.37859676000005 ] } },
{ "type": "Feature", "properties": { "FID": 217, "id_estacio": 225.0, "Direccion": "Calle Flor De Retama", "Aproximaci": "Centro Deportivo Entreflores", "Lat_Y": 37.397411, "Lon_X": -5.918765, "CreationDate": "2014\/10\/04 21:21:32", "Creator": "Ayto.Sevilla", "EditDate": "2014\/10\/04 21:21:32", "Editor": "Ayto.Sevilla" }, "geometry": { "type": "Point", "coordinates": [ -5.918764946999943, 37.397411184000077 ] } },
{ "type": "Feature", "properties": { "FID": 218, "id_estacio": 123.0, "Direccion": "Estadio Olimpico", "Aproximaci": "Puerta E", "Lat_Y": 37.415623, "Lon_X": -6.006378, "CreationDate": "2014\/10\/04 21:21:32", "Creator": "Ayto.Sevilla", "EditDate": "2014\/10\/04 21:21:32", "Editor": "Ayto.Sevilla" }, "geometry": { "type": "Point", "coordinates": [ -6.006377635999968, 37.415622987000063 ] } },
{ "type": "Feature", "properties": { "FID": 219, "id_estacio": 124.0, "Direccion": "Calle Enramadilla", "Aproximaci": "Calle Barrau", "Lat_Y": 37.377636, "Lon_X": -5.97733, "CreationDate": "2014\/10\/04 21:21:32", "Creator": "Ayto.Sevilla", "EditDate": "2014\/10\/04 21:21:32", "Editor": "Ayto.Sevilla" }, "geometry": { "type": "Point", "coordinates": [ -5.977329712999961, 37.377635927000028 ] } },
{ "type": "Feature", "properties": { "FID": 220, "id_estacio": 125.0, "Direccion": "Avenida San Francisco Javier", "Aproximaci": "Avenida de Ramón y Cajal", "Lat_Y": 37.377434, "Lon_X": -5.974926, "CreationDate": "2014\/10\/04 21:21:32", "Creator": "Ayto.Sevilla", "EditDate": "2014\/10\/04 21:21:32", "Editor": "Ayto.Sevilla" }, "geometry": { "type": "Point", "coordinates": [ -5.974925821999932, 37.377433908000057 ] } },
{ "type": "Feature", "properties": { "FID": 221, "id_estacio": 126.0, "Direccion": "Avenida Reina Mercedes", "Aproximaci": "Facultad de Informática", "Lat_Y": 37.358261, "Lon_X": -5.986459, "CreationDate": "2014\/10\/04 21:21:32", "Creator": "Ayto.Sevilla", "EditDate": "2014\/10\/04 21:21:32", "Editor": "Ayto.Sevilla" }, "geometry": { "type": "Point", "coordinates": [ -5.98645929199995, 37.358261026000037 ] } },
{ "type": "Feature", "properties": { "FID": 222, "id_estacio": 226.0, "Direccion": "Avenida Doctor Emilio Lemos", "Aproximaci": "Calle de Birmania", "Lat_Y": 37.402863, "Lon_X": -5.921768, "CreationDate": "2014\/10\/04 21:21:32", "Creator": "Ayto.Sevilla", "EditDate": "2014\/10\/04 21:21:32", "Editor": "Ayto.Sevilla" }, "geometry": { "type": "Point", "coordinates": [ -5.921768014999941, 37.402863343000035 ] } },
{ "type": "Feature", "properties": { "FID": 223, "id_estacio": 127.0, "Direccion": "Calle Virgen de la Victoria", "Aproximaci": "Calle Asunción", "Lat_Y": 37.377636, "Lon_X": -5.997794, "CreationDate": "2014\/10\/04 21:21:32", "Creator": "Ayto.Sevilla", "EditDate": "2014\/10\/04 21:21:32", "Editor": "Ayto.Sevilla" }, "geometry": { "type": "Point", "coordinates": [ -5.997794233999969, 37.377635927000028 ] } },
{ "type": "Feature", "properties": { "FID": 224, "id_estacio": 227.0, "Direccion": "Avenida Alcalde Luis Uruñuela", "Aproximaci": "Calle Carlinga", "Lat_Y": 37.390759, "Lon_X": -5.91965, "CreationDate": "2014\/10\/04 21:21:32", "Creator": "Ayto.Sevilla", "EditDate": "2014\/10\/04 21:21:32", "Editor": "Ayto.Sevilla" }, "geometry": { "type": "Point", "coordinates": [ -5.919649786999969, 37.390758869000024 ] } },
{ "type": "Feature", "properties": { "FID": 225, "id_estacio": 128.0, "Direccion": "Calle Virgen de Loreto", "Aproximaci": "Calle Arcos", "Lat_Y": 37.375729, "Lon_X": -5.999036, "CreationDate": "2014\/10\/04 21:21:32", "Creator": "Ayto.Sevilla", "EditDate": "2014\/10\/04 21:21:32", "Editor": "Ayto.Sevilla" }, "geometry": { "type": "Point", "coordinates": [ -5.999035705999972, 37.375729215000035 ] } },
{ "type": "Feature", "properties": { "FID": 226, "id_estacio": 228.0, "Direccion": "Avenida de las Ciencias", "Aproximaci": "Calle Flor de Salvia", "Lat_Y": 37.39447, "Lon_X": -5.921188, "CreationDate": "2014\/10\/04 21:21:32", "Creator": "Ayto.Sevilla", "EditDate": "2014\/10\/04 21:21:32", "Editor": "Ayto.Sevilla" }, "geometry": { "type": "Point", "coordinates": [ -5.92118770299993, 37.394470135000063 ] } },
{ "type": "Feature", "properties": { "FID": 227, "id_estacio": 129.0, "Direccion": "Calle Virgen de Lujan", "Aproximaci": "Virgen de la Victoria", "Lat_Y": 37.374687, "Lon_X": -6.002469, "CreationDate": "2014\/10\/04 21:21:32", "Creator": "Ayto.Sevilla", "EditDate": "2014\/10\/04 21:21:32", "Editor": "Ayto.Sevilla" }, "geometry": { "type": "Point", "coordinates": [ -6.002469066999936, 37.374686964000034 ] } },
{ "type": "Feature", "properties": { "FID": 228, "id_estacio": 229.0, "Direccion": "Avenida Aeronautica", "Aproximaci": "Avenida del Deporte", "Lat_Y": 37.387363, "Lon_X": -5.919905, "CreationDate": "2014\/10\/04 21:21:32", "Creator": "Ayto.Sevilla", "EditDate": "2014\/10\/04 21:21:32", "Editor": "Ayto.Sevilla" }, "geometry": { "type": "Point", "coordinates": [ -5.919904908999968, 37.387362899000038 ] } },
{ "type": "Feature", "properties": { "FID": 229, "id_estacio": 130.0, "Direccion": "Glorieta Republica Dominicana", "Aproximaci": "Calle López de Gomara", "Lat_Y": 37.375725, "Lon_X": -6.005651, "CreationDate": "2014\/10\/04 21:21:32", "Creator": "Ayto.Sevilla", "EditDate": "2014\/10\/04 21:21:32", "Editor": "Ayto.Sevilla" }, "geometry": { "type": "Point", "coordinates": [ -6.005650898999932, 37.375724932000026 ] } },
{ "type": "Feature", "properties": { "FID": 230, "id_estacio": 230.0, "Direccion": "Avenida de las Ciencias", "Aproximaci": "Avenida de la Republica China", "Lat_Y": 37.403938, "Lon_X": -5.928131, "CreationDate": "2014\/10\/04 21:21:32", "Creator": "Ayto.Sevilla", "EditDate": "2014\/10\/04 21:21:32", "Editor": "Ayto.Sevilla" }, "geometry": { "type": "Point", "coordinates": [ -5.928130781999926, 37.403938029000074 ] } },
{ "type": "Feature", "properties": { "FID": 231, "id_estacio": 231.0, "Direccion": "Avenida Alcalde Luis Uruñuela", "Aproximaci": "Paseo Miguel de Unamuno", "Lat_Y": 37.401669, "Lon_X": -5.942148, "CreationDate": "2014\/10\/04 21:21:32", "Creator": "Ayto.Sevilla", "EditDate": "2014\/10\/04 21:21:32", "Editor": "Ayto.Sevilla" }, "geometry": { "type": "Point", "coordinates": [ -5.942148093999947, 37.40166875500006 ] } },
{ "type": "Feature", "properties": { "FID": 232, "id_estacio": 232.0, "Direccion": "Avenida Alcalde Luis Uruñuela", "Aproximaci": "Plaza de la Acogida", "Lat_Y": 37.403976, "Lon_X": -5.939756, "CreationDate": "2014\/10\/04 21:21:32", "Creator": "Ayto.Sevilla", "EditDate": "2014\/10\/04 21:21:32", "Editor": "Ayto.Sevilla" }, "geometry": { "type": "Point", "coordinates": [ -5.93975588, 37.403975849000062 ] } },
{ "type": "Feature", "properties": { "FID": 233, "id_estacio": 233.0, "Direccion": "Avenida Alcalde Luis Uruñuela", "Aproximaci": "Estación de RENFE", "Lat_Y": 37.404206, "Lon_X": -5.937008, "CreationDate": "2014\/10\/04 21:21:32", "Creator": "Ayto.Sevilla", "EditDate": "2014\/10\/04 21:21:32", "Editor": "Ayto.Sevilla" }, "geometry": { "type": "Point", "coordinates": [ -5.937007933999951, 37.404206341000076 ] } },
{ "type": "Feature", "properties": { "FID": 234, "id_estacio": 234.0, "Direccion": "Calle Médicos Sin Frontera", "Aproximaci": "Avenida de las Ciencias", "Lat_Y": 37.399971, "Lon_X": -5.925187, "CreationDate": "2014\/10\/04 21:21:32", "Creator": "Ayto.Sevilla", "EditDate": "2014\/10\/04 21:21:32", "Editor": "Ayto.Sevilla" }, "geometry": { "type": "Point", "coordinates": [ -5.925187002999962, 37.399971036000068 ] } },
{ "type": "Feature", "properties": { "FID": 235, "id_estacio": 235.0, "Direccion": "Calle Ciudad de Chiva", "Aproximaci": "Calle Ciudad de Alfajar", "Lat_Y": 37.411701, "Lon_X": -5.929849, "CreationDate": "2014\/10\/04 21:21:32", "Creator": "Ayto.Sevilla", "EditDate": "2014\/10\/04 21:21:32", "Editor": "Ayto.Sevilla" }, "geometry": { "type": "Point", "coordinates": [ -5.92984925899998, 37.411700851000035 ] } },
{ "type": "Feature", "properties": { "FID": 236, "id_estacio": 236.0, "Direccion": "Ciudad de Chiva", "Aproximaci": "Calle Ciudad de Liria", "Lat_Y": 37.410217, "Lon_X": -5.926472, "CreationDate": "2014\/10\/04 21:21:32", "Creator": "Ayto.Sevilla", "EditDate": "2014\/10\/04 21:21:32", "Editor": "Ayto.Sevilla" }, "geometry": { "type": "Point", "coordinates": [ -5.926471593999963, 37.410216708000064 ] } },
{ "type": "Feature", "properties": { "FID": 237, "id_estacio": 237.0, "Direccion": "Ciudad de Chiva", "Aproximaci": "Calle Ildefonso Marañon", "Lat_Y": 37.409332, "Lon_X": -5.923247, "CreationDate": "2014\/10\/04 21:21:32", "Creator": "Ayto.Sevilla", "EditDate": "2014\/10\/04 21:21:32", "Editor": "Ayto.Sevilla" }, "geometry": { "type": "Point", "coordinates": [ -5.923246641999981, 37.409331916000042 ] } },
{ "type": "Feature", "properties": { "FID": 238, "id_estacio": 238.0, "Direccion": "Calle Ciudad de Chiva", "Aproximaci": "Pza del Árbol Rey", "Lat_Y": 37.408146, "Lon_X": -5.920001, "CreationDate": "2014\/10\/04 21:21:32", "Creator": "Ayto.Sevilla", "EditDate": "2014\/10\/04 21:21:32", "Editor": "Ayto.Sevilla" }, "geometry": { "type": "Point", "coordinates": [ -5.920001028999934, 37.408145994000051 ] } },
{ "type": "Feature", "properties": { "FID": 239, "id_estacio": 239.0, "Direccion": "Calle Ciudad de Liria", "Aproximaci": "Avenida de Fernando", "Lat_Y": 37.408657, "Lon_X": -5.927765, "CreationDate": "2014\/10\/04 21:21:32", "Creator": "Ayto.Sevilla", "EditDate": "2014\/10\/04 21:21:32", "Editor": "Ayto.Sevilla" }, "geometry": { "type": "Point", "coordinates": [ -5.927765167999951, 37.40865689900005 ] } },
{ "type": "Feature", "properties": { "FID": 240, "id_estacio": 240.0, "Direccion": "Avenida Alcalde Luis Uruñuela", "Aproximaci": "Cueva de la Pileta", "Lat_Y": 37.402603, "Lon_X": -5.94051, "CreationDate": "2014\/10\/04 21:21:32", "Creator": "Ayto.Sevilla", "EditDate": "2014\/10\/04 21:21:32", "Editor": "Ayto.Sevilla" }, "geometry": { "type": "Point", "coordinates": [ -5.940509566999935, 37.40260287600006 ] } },
{ "type": "Feature", "properties": { "FID": 241, "id_estacio": 241.0, "Direccion": "Plaza Nueva", "Aproximaci": "Calle Mendez Núñez", "Lat_Y": 37.388844, "Lon_X": -5.996077, "CreationDate": "2014\/10\/04 21:21:32", "Creator": "Ayto.Sevilla", "EditDate": "2014\/10\/04 21:21:32", "Editor": "Ayto.Sevilla" }, "geometry": { "type": "Point", "coordinates": [ -5.996076654999968, 37.38884392600005 ] } },
{ "type": "Feature", "properties": { "FID": 242, "id_estacio": 242.0, "Direccion": "Plaza Nueva", "Aproximaci": "Calle Mendez Núñez", "Lat_Y": 37.388882, "Lon_X": -5.996081, "CreationDate": "2014\/10\/04 21:21:32", "Creator": "Ayto.Sevilla", "EditDate": "2014\/10\/04 21:21:32", "Editor": "Ayto.Sevilla" }, "geometry": { "type": "Point", "coordinates": [ -5.996081146999927, 37.388881754000067 ] } },
{ "type": "Feature", "properties": { "FID": 243, "id_estacio": 243.0, "Direccion": "Glorieta del Primero de Mayo", "Aproximaci": "Calle Carlos Marx", "Lat_Y": 37.380432, "Lon_X": -5.953475, "CreationDate": "2014\/10\/04 21:21:32", "Creator": "Ayto.Sevilla", "EditDate": "2014\/10\/04 21:21:32", "Editor": "Ayto.Sevilla" },